{"type":"FeatureCollection","features":[{"type":"Feature","geometry":{"type":"Point","coordinates":[-93.268013,44.290487]},"properties":{"name":"Faribault","pop":25376,"rank":4}},{"type":"Feature","geometry":{"type":"Point","coordinates":[-93.999157,44.163621]},"properties":{"name":"Mankato","pop":56325,"rank":4}},{"type":"Feature","geometry":{"type":"Point","coordinates":[-93.368704,43.647787]},"properties":{"name":"Albert Lea","pop":20522,"rank":4}},{"type":"Feature","geometry":{"type":"Point","coordinates":[-95.043305,45.121883]},"properties":{"name":"Willmar","pop":18473,"rank":4}},{"type":"Feature","geometry":{"type":"Point","coordinates":[-94.20085,46.358009]},"properties":{"name":"Brainerd","pop":28187,"rank":4}},{"type":"Feature","geometry":{"type":"Point","coordinates":[-96.607731,47.773762]},"properties":{"name":"Crookston","pop":8653,"rank":4}},{"type":"Feature","geometry":{"type":"Point","coordinates":[-107.612486,45.731768]},"properties":{"name":"Hardin","pop":4448,"rank":4}},{"type":"Feature","geometry":{"type":"Point","coordinates":[-104.710493,47.108583]},"properties":{"name":"Glendive","pop":5856,"rank":4}},{"type":"Feature","geometry":{"type":"Point","coordinates":[-112.683985,45.215676]},"properties":{"name":"Dillon","pop":4463,"rank":4}},{"type":"Feature","geometry":{"type":"Point","coordinates":[-114.156686,47.688005]},"properties":{"name":"Polson","pop":5326,"rank":4}},{"type":"Feature","geometry":{"type":"Point","coordinates":[-98.859687,48.112217]},"properties":{"name":"Devils Lake","pop":7813,"rank":4}},{"type":"Feature","geometry":{"type":"Point","coordinates":[-113.791876,42.535813]},"properties":{"name":"Burley","pop":14042,"rank":4}},{"type":"Feature","geometry":{"type":"Point","coordinates":[-115.926888,47.47422]},"properties":{"name":"Wallace","pop":1028,"rank":4}},{"type":"Feature","geometry":{"type":"Point","coordinates":[-119.136098,46.211377]},"properties":{"name":"Kennewick","pop":102504,"rank":3}},{"type":"Feature","geometry":{"type":"Point","coordinates":[-122.952971,46.716411]},"properties":{"name":"Centralia","pop":18880,"rank":4}},{"type":"Feature","geometry":{"type":"Point","coordinates":[-112.174495,33.535431]},"properties":{"name":"Glendale","pop":500000,"rank":2}},{"type":"Feature","geometry":{"type":"Point","coordinates":[-109.70688,32.833821]},"properties":{"name":"Safford","pop":10668,"rank":4}},{"type":"Feature","geometry":{"type":"Point","coordinates":[-111.756626,32.879374]},"properties":{"name":"Casa Grande","pop":44655,"rank":4}},{"type":"Feature","geometry":{"type":"Point","coordinates":[-111.820967,33.414796]},"properties":{"name":"Mesa","pop":1085394,"rank":1}},{"type":"Feature","geometry":{"type":"Point","coordinates":[-114.308279,34.498294]},"properties":{"name":"Lake Havasu City","pop":56133,"rank":4}},{"type":"Feature","geometry":{"type":"Point","coordinates":[-122.271152,37.873901]},"properties":{"name":"Berkeley","pop":496356,"rank":2}},{"type":"Feature","geometry":{"type":"Point","coordinates":[-117.098005,32.671945]},"properties":{"name":"National City","pop":150000,"rank":3}},{"type":"Feature","geometry":{"type":"Point","coordinates":[-123.799431,39.307767]},"properties":{"name":"Mendocino","pop":548,"rank":4}},{"type":"Feature","geometry":{"type":"Point","coordinates":[-120.689982,35.626597]},"properties":{"name":"Paso Robles","pop":27157,"rank":4}},{"type":"Feature","geometry":{"type":"Point","coordinates":[-117.398039,33.941945]},"properties":{"name":"Riverside","pop":297554,"rank":3}},{"type":"Feature","geometry":{"type":"Point","coordinates":[-119.243068,35.761937]},"properties":{"name":"Delano","pop":44757,"rank":4}},{"type":"Feature","geometry":{"type":"Point","coordinates":[-122.303214,37.540554]},"properties":{"name":"San Mateo","pop":626406,"rank":2}},{"type":"Feature","geometry":{"type":"Point","coordinates":[-122.258052,38.111949]},"properties":{"name":"Vallejo","pop":146289,"rank":3}},{"type":"Feature","geometry":{"type":"Point","coordinates":[-107.3247,39.54659]},"properties":{"name":"Glenwood Springs","pop":14004,"rank":4}},{"type":"Feature","geometry":{"type":"Point","coordinates":[-104.808497,39.695857]},"properties":{"name":"Aurora","pop":587540,"rank":2}},{"type":"Feature","geometry":{"type":"Point","coordinates":[-104.739974,40.419198]},"properties":{"name":"Greeley","pop":125410,"rank":3}},{"type":"Feature","geometry":{"type":"Point","coordinates":[-117.228979,38.06699]},"properties":{"name":"Tonopah","pop":3261,"rank":4}},{"type":"Feature","geometry":{"type":"Point","coordinates":[-107.755785,32.261091]},"properties":{"name":"Deming","pop":16298,"rank":4}},{"type":"Feature","geometry":{"type":"Point","coordinates":[-107.252896,33.133596]},"properties":{"name":"Truth or Consequences","pop":7121,"rank":4}},{"type":"Feature","geometry":{"type":"Point","coordinates":[-105.222503,35.597012]},"properties":{"name":"Las Vegas","pop":16998,"rank":4}},{"type":"Feature","geometry":{"type":"Point","coordinates":[-108.186094,36.754151]},"properties":{"name":"Farmington","pop":43278,"rank":4}},{"type":"Feature","geometry":{"type":"Point","coordinates":[-122.978034,44.051948]},"properties":{"name":"Springfield","pop":56032,"rank":4}},{"type":"Feature","geometry":{"type":"Point","coordinates":[-123.842503,45.455247]},"properties":{"name":"Tillamook","pop":8145,"rank":4}},{"type":"Feature","geometry":{"type":"Point","coordinates":[-116.961889,44.026627]},"properties":{"name":"Ontario","pop":12187,"rank":4}},{"type":"Feature","geometry":{"type":"Point","coordinates":[-118.086601,45.324687]},"properties":{"name":"La Grande","pop":15004,"rank":4}},{"type":"Feature","geometry":{"type":"Point","coordinates":[-112.083298,38.772477]},"properties":{"name":"Richfield","pop":7621,"rank":4}},{"type":"Feature","geometry":{"type":"Point","coordinates":[-111.835484,39.710275]},"properties":{"name":"Nephi","pop":5117,"rank":4}},{"type":"Feature","geometry":{"type":"Point","coordinates":[-108.732598,42.833004]},"properties":{"name":"Lander","pop":6821,"rank":4}},{"type":"Feature","geometry":{"type":"Point","coordinates":[-108.758437,44.758675]},"properties":{"name":"Powell","pop":6895,"rank":4}},{"type":"Feature","geometry":{"type":"Point","coordinates":[-90.502884,36.057087]},"properties":{"name":"Paragould","pop":23450,"rank":4}},{"type":"Feature","geometry":{"type":"Point","coordinates":[-91.529979,41.661086]},"properties":{"name":"Iowa City","pop":98516,"rank":4}},{"type":"Feature","geometry":{"type":"Point","coordinates":[-92.414809,41.012883]},"properties":{"name":"Ottumwa","pop":25982,"rank":4}},{"type":"Feature","geometry":{"type":"Point","coordinates":[-95.147175,43.145285]},"properties":{"name":"Spencer","pop":11203,"rank":4}},{"type":"Feature","geometry":{"type":"Point","coordinates":[-94.180257,42.506823]},"properties":{"name":"Ft. Dodge","pop":26879,"rank":4}},{"type":"Feature","geometry":{"type":"Point","coordinates":[-97.923491,38.065492]},"properties":{"name":"Hutchinson","pop":44477,"rank":4}},{"type":"Feature","geometry":{"type":"Point","coordinates":[-94.630146,39.11358]},"properties":{"name":"Kansas City","pop":501577,"rank":2}},{"type":"Feature","geometry":{"type":"Point","coordinates":[-95.25523,38.959752]},"properties":{"name":"Lawrence","pop":92726,"rank":4}},{"type":"Feature","geometry":{"type":"Point","coordinates":[-100.864086,37.975213]},"properties":{"name":"Garden City","pop":28564,"rank":4}},{"type":"Feature","geometry":{"type":"Point","coordinates":[-96.592435,39.194027]},"properties":{"name":"Manhattan","pop":56949,"rank":4}},{"type":"Feature","geometry":{"type":"Point","coordinates":[-99.322191,38.87937]},"properties":{"name":"Hays","pop":21394,"rank":4}},{"type":"Feature","geometry":{"type":"Point","coordinates":[-101.711037,39.348488]},"properties":{"name":"Goodland","pop":4378,"rank":4}},{"type":"Feature","geometry":{"type":"Point","coordinates":[-94.415281,39.091114]},"properties":{"name":"Independence","pop":148102,"rank":3}},{"type":"Feature","geometry":{"type":"Point","coordinates":[-92.582809,40.193682]},"properties":{"name":"Kirksville","pop":19193,"rank":4}},{"type":"Feature","geometry":{"type":"Point","coordinates":[-99.081146,40.700706]},"properties":{"name":"Kearney","pop":31553,"rank":4}},{"type":"Feature","geometry":{"type":"Point","coordinates":[-98.357986,40.922268]},"properties":{"name":"Grand Island","pop":45651,"rank":4}},{"type":"Feature","geometry":{"type":"Point","coordinates":[-102.870192,42.101395]},"properties":{"name":"Alliance","pop":8344,"rank":4}},{"type":"Feature","geometry":{"type":"Point","coordinates":[-95.980586,36.7472]},"properties":{"name":"Bartlesville","pop":34610,"rank":4}},{"type":"Feature","geometry":{"type":"Point","coordinates":[-97.878093,36.395542]},"properties":{"name":"Enid","pop":46138,"rank":4}},{"type":"Feature","geometry":{"type":"Point","coordinates":[-97.129405,34.181078]},"properties":{"name":"Ardmore","pop":24960,"rank":4}},{"type":"Feature","geometry":{"type":"Point","coordinates":[-95.765974,34.932996]},"properties":{"name":"McAlester","pop":21668,"rank":4}},{"type":"Feature","geometry":{"type":"Point","coordinates":[-97.068298,36.135351]},"properties":{"name":"Stillwater","pop":47667,"rank":4}},{"type":"Feature","geometry":{"type":"Point","coordinates":[-103.76577,44.350845]},"properties":{"name":"Lead","pop":2874,"rank":4}},{"type":"Feature","geometry":{"type":"Point","coordinates":[-89.781094,30.27496]},"properties":{"name":"Slidell","pop":84239,"rank":4}},{"type":"Feature","geometry":{"type":"Point","coordinates":[-93.217189,30.226384]},"properties":{"name":"Lake Charles","pop":83821,"rank":4}},{"type":"Feature","geometry":{"type":"Point","coordinates":[-90.152777,29.983866]},"properties":{"name":"Metairie","pop":394206,"rank":2}},{"type":"Feature","geometry":{"type":"Point","coordinates":[-91.818308,30.003581]},"properties":{"name":"New Iberia","pop":37540,"rank":4}},{"type":"Feature","geometry":{"type":"Point","coordinates":[-96.369684,30.674186]},"properties":{"name":"Bryan","pop":146692,"rank":3}},{"type":"Feature","geometry":{"type":"Point","coordinates":[-97.941113,29.883071]},"properties":{"name":"San Marcos","pop":70371,"rank":4}},{"type":"Feature","geometry":{"type":"Point","coordinates":[-94.740274,32.500534]},"properties":{"name":"Longview","pop":75920,"rank":4}},{"type":"Feature","geometry":{"type":"Point","coordinates":[-98.229725,26.203038]},"properties":{"name":"McAllen","pop":364004,"rank":2}},{"type":"Feature","geometry":{"type":"Point","coordinates":[-97.690198,26.19756]},"properties":{"name":"Harlingen","pop":110339,"rank":3}},{"type":"Feature","geometry":{"type":"Point","coordinates":[-98.070485,27.750463]},"properties":{"name":"Alice","pop":22655,"rank":4}},{"type":"Feature","geometry":{"type":"Point","coordinates":[-98.126321,29.697811]},"properties":{"name":"New Braunfels","pop":45840,"rank":4}},{"type":"Feature","geometry":{"type":"Point","coordinates":[-97.39249,32.351525]},"properties":{"name":"Cleburne","pop":35545,"rank":4}},{"type":"Feature","geometry":{"type":"Point","coordinates":[-98.982315,31.707895]},"properties":{"name":"Brownwood","pop":20988,"rank":4}},{"type":"Feature","geometry":{"type":"Point","coordinates":[-103.665001,30.360717]},"properties":{"name":"Alpine","pop":6587,"rank":4}},{"type":"Feature","geometry":{"type":"Point","coordinates":[-104.832242,31.042484]},"properties":{"name":"Van Horn","pop":2175,"rank":4}},{"type":"Feature","geometry":{"type":"Point","coordinates":[-101.475186,32.243186]},"properties":{"name":"Big Spring","pop":24122,"rank":4}},{"type":"Feature","geometry":{"type":"Point","coordinates":[-99.290384,34.151054]},"properties":{"name":"Vernon","pop":11660,"rank":4}},{"type":"Feature","geometry":{"type":"Point","coordinates":[-100.21392,34.424887]},"properties":{"name":"Childress","pop":6557,"rank":4}},{"type":"Feature","geometry":{"type":"Point","coordinates":[-102.398592,34.821917]},"properties":{"name":"Hereford","pop":15675,"rank":4}},{"type":"Feature","geometry":{"type":"Point","coordinates":[-102.518611,36.060808]},"properties":{"name":"Dalhart","pop":7088,"rank":4}},{"type":"Feature","geometry":{"type":"Point","coordinates":[-94.962767,29.410878]},"properties":{"name":"Texas City","pop":69914,"rank":4}},{"type":"Feature","geometry":{"type":"Point","coordinates":[-95.147743,29.660863]},"properties":{"name":"Pasadena","pop":628492,"rank":2}},{"type":"Feature","geometry":{"type":"Point","coordinates":[-94.967728,29.755844]},"properties":{"name":"Baytown","pop":86034,"rank":4}},{"type":"Feature","geometry":{"type":"Point","coordinates":[-97.020239,32.684761]},"properties":{"name":"Arlington","pop":724777,"rank":2}},{"type":"Feature","geometry":{"type":"Point","coordinates":[-72.100028,41.355523]},"properties":{"name":"New London","pop":96178,"rank":4}},{"type":"Feature","geometry":{"type":"Point","coordinates":[-73.539191,41.053346]},"properties":{"name":"Stamford","pop":746920,"rank":2}},{"type":"Feature","geometry":{"type":"Point","coordinates":[-73.050022,41.550008]},"properties":{"name":"Waterbury","pop":174236,"rank":3}},{"type":"Feature","geometry":{"type":"Point","coordinates":[-70.944698,41.656125]},"properties":{"name":"New Bedford","pop":136082,"rank":3}},{"type":"Feature","geometry":{"type":"Point","coordinates":[-72.579999,42.120025]},"properties":{"name":"Springfield","pop":421780,"rank":2}},{"type":"Feature","geometry":{"type":"Point","coordinates":[-70.883092,42.522499]},"properties":{"name":"Salem","pop":335509,"rank":2}},{"type":"Feature","geometry":{"type":"Point","coordinates":[-73.259828,42.448196]},"properties":{"name":"Pittsfield","pop":46230,"rank":4}},{"type":"Feature","geometry":{"type":"Point","coordinates":[-72.575813,44.259971]},"properties":{"name":"Montpelier","pop":8538,"rank":4}},{"type":"Feature","geometry":{"type":"Point","coordinates":[-85.48084,32.609701]},"properties":{"name":"Auburn","pop":73929,"rank":4}},{"type":"Feature","geometry":{"type":"Point","coordinates":[-87.677243,34.799696]},"properties":{"name":"Florence","pop":45349,"rank":4}},{"type":"Feature","geometry":{"type":"Point","coordinates":[-81.733006,28.021919]},"properties":{"name":"Winter Haven","pop":108932,"rank":3}},{"type":"Feature","geometry":{"type":"Point","coordinates":[-80.60832,28.08331]},"properties":{"name":"Melbourne","pop":265414,"rank":3}},{"type":"Feature","geometry":{"type":"Point","coordinates":[-80.477786,25.468302]},"properties":{"name":"Homestead","pop":85967,"rank":4}},{"type":"Feature","geometry":{"type":"Point","coordinates":[-81.279985,28.78996]},"properties":{"name":"Sanford","pop":333460,"rank":2}},{"type":"Feature","geometry":{"type":"Point","coordinates":[-80.131781,25.809919]},"properties":{"name":"Miami Beach","pop":407750,"rank":2}},{"type":"Feature","geometry":{"type":"Point","coordinates":[-80.270822,26.270837]},"properties":{"name":"Coral Springs","pop":250000,"rank":3}},{"type":"Feature","geometry":{"type":"Point","coordinates":[-82.105697,27.000043]},"properties":{"name":"Port Charlotte","pop":64279,"rank":4}},{"type":"Feature","geometry":{"type":"Point","coordinates":[-82.547711,28.478945]},"properties":{"name":"Spring Hill","pop":114697,"rank":3}},{"type":"Feature","geometry":{"type":"Point","coordinates":[-81.223296,29.538002]},"properties":{"name":"Palm Coast","pop":48577,"rank":4}},{"type":"Feature","geometry":{"type":"Point","coordinates":[-81.651306,29.647685]},"properties":{"name":"Palatka","pop":21452,"rank":4}},{"type":"Feature","geometry":{"type":"Point","coordinates":[-81.883333,28.810501]},"properties":{"name":"Leesburg","pop":49574,"rank":4}},{"type":"Feature","geometry":{"type":"Point","coordinates":[-82.639747,30.189719]},"properties":{"name":"Lake City","pop":29395,"rank":4}},{"type":"Feature","geometry":{"type":"Point","coordinates":[-86.572608,30.754207]},"properties":{"name":"Crestview","pop":22403,"rank":4}},{"type":"Feature","geometry":{"type":"Point","coordinates":[-85.655273,30.15861]},"properties":{"name":"Panama City","pop":100072,"rank":3}},{"type":"Feature","geometry":{"type":"Point","coordinates":[-84.970302,34.769724]},"properties":{"name":"Dalton","pop":58557,"rank":4}},{"type":"Feature","geometry":{"type":"Point","coordinates":[-84.543248,33.955613]},"properties":{"name":"Marietta","pop":61360,"rank":4}},{"type":"Feature","geometry":{"type":"Point","coordinates":[-82.354906,31.213817]},"properties":{"name":"Waycross","pop":19824,"rank":4}},{"type":"Feature","geometry":{"type":"Point","coordinates":[-85.031875,33.036471]},"properties":{"name":"La Grange","pop":31776,"rank":4}},{"type":"Feature","geometry":{"type":"Point","coordinates":[-90.003457,34.968911]},"properties":{"name":"Southaven","pop":121268,"rank":3}},{"type":"Feature","geometry":{"type":"Point","coordinates":[-88.703614,32.364186]},"properties":{"name":"Meridian","pop":42290,"rank":4}},{"type":"Feature","geometry":{"type":"Point","coordinates":[-89.139273,31.697379]},"properties":{"name":"Laurel","pop":28841,"rank":4}},{"type":"Feature","geometry":{"type":"Point","coordinates":[-81.932271,34.949429]},"properties":{"name":"Spartanburg","pop":124126,"rank":3}},{"type":"Feature","geometry":{"type":"Point","coordinates":[-80.862233,33.496804]},"properties":{"name":"Orangeburg","pop":35472,"rank":4}},{"type":"Feature","geometry":{"type":"Point","coordinates":[-90.371084,40.947771]},"properties":{"name":"Galesburg","pop":32094,"rank":4}},{"type":"Feature","geometry":{"type":"Point","coordinates":[-88.106674,41.529983]},"properties":{"name":"Joliet","pop":578460,"rank":2}},{"type":"Feature","geometry":{"type":"Point","coordinates":[-89.518087,37.305822]},"properties":{"name":"Cape Girardeau","pop":40427,"rank":4}},{"type":"Feature","geometry":{"type":"Point","coordinates":[-89.06969,42.269705]},"properties":{"name":"Rockford","pop":255978,"rank":3}},{"type":"Feature","geometry":{"type":"Point","coordinates":[-87.699955,42.048349]},"properties":{"name":"Evanston","pop":350000,"rank":2}},{"type":"Feature","geometry":{"type":"Point","coordinates":[-90.534614,41.493396]},"properties":{"name":"Rock Island","pop":165728,"rank":3}},{"type":"Feature","geometry":{"type":"Point","coordinates":[-88.289919,42.039461]},"properties":{"name":"Elgin","pop":389514,"rank":2}},{"type":"Feature","geometry":{"type":"Point","coordinates":[-84.890281,39.828898]},"properties":{"name":"Richmond","pop":44400,"rank":4}},{"type":"Feature","geometry":{"type":"Point","coordinates":[-87.413874,39.466647]},"properties":{"name":"Terre Haute","pop":73236,"rank":4}},{"type":"Feature","geometry":{"type":"Point","coordinates":[-86.878248,40.417209]},"properties":{"name":"Lafayette","pop":133977,"rank":3}},{"type":"Feature","geometry":{"type":"Point","coordinates":[-85.659175,40.558337]},"properties":{"name":"Marion","pop":38297,"rank":4}},{"type":"Feature","geometry":{"type":"Point","coordinates":[-86.250017,41.683307]},"properties":{"name":"South Bend","pop":239822,"rank":3}},{"type":"Feature","geometry":{"type":"Point","coordinates":[-85.821284,38.310877]},"properties":{"name":"New Albany","pop":120625,"rank":3}},{"type":"Feature","geometry":{"type":"Point","coordinates":[-85.968794,41.682945]},"properties":{"name":"Elkhart","pop":149190,"rank":3}},{"type":"Feature","geometry":{"type":"Point","coordinates":[-87.488624,36.865488]},"properties":{"name":"Hopkinsville","pop":35604,"rank":4}},{"type":"Feature","geometry":{"type":"Point","coordinates":[-84.083354,37.128882]},"properties":{"name":"London","pop":7844,"rank":4}},{"type":"Feature","geometry":{"type":"Point","coordinates":[-87.502215,37.332746]},"properties":{"name":"Madisonville","pop":22294,"rank":4}},{"type":"Feature","geometry":{"type":"Point","coordinates":[-77.790766,35.937999]},"properties":{"name":"Rocky Mount","pop":58361,"rank":4}},{"type":"Feature","geometry":{"type":"Point","coordinates":[-80.474478,35.67078]},"properties":{"name":"Salisbury","pop":41352,"rank":4}},{"type":"Feature","geometry":{"type":"Point","coordinates":[-78.92,35.999959]},"properties":{"name":"Durham","pop":309495,"rank":2}},{"type":"Feature","geometry":{"type":"Point","coordinates":[-79.011906,34.6272]},"properties":{"name":"Lumberton","pop":32785,"rank":4}},{"type":"Feature","geometry":{"type":"Point","coordinates":[-82.013325,39.940287]},"properties":{"name":"Zanesville","pop":40052,"rank":4}},{"type":"Feature","geometry":{"type":"Point","coordinates":[-82.515542,40.758325]},"properties":{"name":"Mansfield","pop":77768,"rank":4}},{"type":"Feature","geometry":{"type":"Point","coordinates":[-83.65139,41.374747]},"properties":{"name":"Bowling Green","pop":37080,"rank":4}},{"type":"Feature","geometry":{"type":"Point","coordinates":[-83.799986,39.920004]},"properties":{"name":"Springfield","pop":84576,"rank":4}},{"type":"Feature","geometry":{"type":"Point","coordinates":[-82.605304,39.719215]},"properties":{"name":"Lancaster","pop":48829,"rank":4}},{"type":"Feature","geometry":{"type":"Point","coordinates":[-82.353614,36.313325]},"properties":{"name":"Johnson City","pop":77538,"rank":4}},{"type":"Feature","geometry":{"type":"Point","coordinates":[-82.561948,36.548323]},"properties":{"name":"Kingsport","pop":57467,"rank":4}},{"type":"Feature","geometry":{"type":"Point","coordinates":[-87.035267,35.614995]},"properties":{"name":"Columbia","pop":116091,"rank":3}},{"type":"Feature","geometry":{"type":"Point","coordinates":[-89.84109,35.2229]},"properties":{"name":"Barlett","pop":286423,"rank":3}},{"type":"Feature","geometry":{"type":"Point","coordinates":[-80.414198,37.229419]},"properties":{"name":"Blacksburg","pop":67508,"rank":4}},{"type":"Feature","geometry":{"type":"Point","coordinates":[-78.869176,38.449422]},"properties":{"name":"Harrisonburg","pop":42538,"rank":4}},{"type":"Feature","geometry":{"type":"Point","coordinates":[-77.402237,37.227765]},"properties":{"name":"Petersburg","pop":118577,"rank":3}},{"type":"Feature","geometry":{"type":"Point","coordinates":[-76.34995,37.030025]},"properties":{"name":"Hampton","pop":366766,"rank":2}},{"type":"Feature","geometry":{"type":"Point","coordinates":[-87.714424,43.75083]},"properties":{"name":"Sheboygan","pop":53705,"rank":4}},{"type":"Feature","geometry":{"type":"Point","coordinates":[-88.231369,43.01165]},"properties":{"name":"Waukesha","pop":249912,"rank":3}},{"type":"Feature","geometry":{"type":"Point","coordinates":[-91.239429,43.801369]},"properties":{"name":"La Crosse","pop":87381,"rank":4}},{"type":"Feature","geometry":{"type":"Point","coordinates":[-91.498353,44.811359]},"properties":{"name":"Eau Claire","pop":79740,"rank":4}},{"type":"Feature","geometry":{"type":"Point","coordinates":[-90.503892,43.985053]},"properties":{"name":"Tomah","pop":12997,"rank":4}},{"type":"Feature","geometry":{"type":"Point","coordinates":[-89.021579,42.682626]},"properties":{"name":"Janesville","pop":69278,"rank":4}},{"type":"Feature","geometry":{"type":"Point","coordinates":[-88.400506,44.268679]},"properties":{"name":"Appleton","pop":203665,"rank":3}},{"type":"Feature","geometry":{"type":"Point","coordinates":[-81.561647,39.266659]},"properties":{"name":"Parkersburg","pop":61935,"rank":4}},{"type":"Feature","geometry":{"type":"Point","coordinates":[-80.303481,37.79388]},"properties":{"name":"White Sulphur Springs","pop":2407,"rank":4}},{"type":"Feature","geometry":{"type":"Point","coordinates":[-80.336916,39.283273]},"properties":{"name":"Clarksburg","pop":28773,"rank":4}},{"type":"Feature","geometry":{"type":"Point","coordinates":[-75.524703,39.158087]},"properties":{"name":"Dover","pop":76039,"rank":4}},{"type":"Feature","geometry":{"type":"Point","coordinates":[-76.938932,38.603056]},"properties":{"name":"St. Charles","pop":69208,"rank":4}},{"type":"Feature","geometry":{"type":"Point","coordinates":[-76.492499,38.97833]},"properties":{"name":"Annapolis","pop":81300,"rank":4}},{"type":"Feature","geometry":{"type":"Point","coordinates":[-77.72028,39.641649]},"properties":{"name":"Hagerstown","pop":79662,"rank":4}},{"type":"Feature","geometry":{"type":"Point","coordinates":[-74.170005,40.919995]},"properties":{"name":"Paterson","pop":151205,"rank":3}},{"type":"Feature","geometry":{"type":"Point","coordinates":[-73.785016,43.082963]},"properties":{"name":"Saratoga Springs","pop":55793,"rank":4}},{"type":"Feature","geometry":{"type":"Point","coordinates":[-73.921416,41.700231]},"properties":{"name":"Poughkeepsie","pop":170996,"rank":3}},{"type":"Feature","geometry":{"type":"Point","coordinates":[-73.457982,44.694984]},"properties":{"name":"Plattsburgh","pop":29238,"rank":4}},{"type":"Feature","geometry":{"type":"Point","coordinates":[-80.319423,40.751943]},"properties":{"name":"Beaver Falls","pop":120125,"rank":3}},{"type":"Feature","geometry":{"type":"Point","coordinates":[-78.394967,40.518598]},"properties":{"name":"Altoona","pop":78607,"rank":4}},{"type":"Feature","geometry":{"type":"Point","coordinates":[-77.001383,41.241086]},"properties":{"name":"Williamsport","pop":56877,"rank":4}},{"type":"Feature","geometry":{"type":"Point","coordinates":[-76.305766,40.037774]},"properties":{"name":"Lancaster","pop":209489,"rank":3}},{"type":"Feature","geometry":{"type":"Point","coordinates":[-75.500028,40.599988]},"properties":{"name":"Allentown","pop":496442,"rank":2}},{"type":"Feature","geometry":{"type":"Point","coordinates":[-69.645785,44.551892]},"properties":{"name":"Waterville","pop":25152,"rank":4}},{"type":"Feature","geometry":{"type":"Point","coordinates":[-67.242392,45.165989]},"properties":{"name":"Calais","pop":3306,"rank":4}},{"type":"Feature","geometry":{"type":"Point","coordinates":[-67.83972,46.125517]},"properties":{"name":"Houlton","pop":6703,"rank":4}},{"type":"Feature","geometry":{"type":"Point","coordinates":[-86.454191,42.11664]},"properties":{"name":"Benton Harbor","pop":58382,"rank":4}},{"type":"Feature","geometry":{"type":"Point","coordinates":[-85.179747,42.321098]},"properties":{"name":"Battle Creek","pop":70820,"rank":4}},{"type":"Feature","geometry":{"type":"Point","coordinates":[-83.888895,43.594457]},"properties":{"name":"Bay City","pop":68549,"rank":4}},{"type":"Feature","geometry":{"type":"Point","coordinates":[-83.432696,45.061602]},"properties":{"name":"Alpena","pop":18330,"rank":4}},{"type":"Feature","geometry":{"type":"Point","coordinates":[-88.064093,45.82246]},"properties":{"name":"Iron Mountain","pop":16183,"rank":4}},{"type":"Feature","geometry":{"type":"Point","coordinates":[-90.159391,46.455807]},"properties":{"name":"Ironwood","pop":7064,"rank":4}},{"type":"Feature","geometry":{"type":"Point","coordinates":[-120.52918539,23.13351561]},"properties":{"name":"Sand Point","pop":667,"rank":4}},{"type":"Feature","geometry":{"type":"Point","coordinates":[-112.49718502,23.0970542]},"properties":{"name":"Hydaburg","pop":382,"rank":4}},{"type":"Feature","geometry":{"type":"Point","coordinates":[-122.18008173,24.59770763]},"properties":{"name":"Mekoryuk","pop":99,"rank":4}},{"type":"Feature","geometry":{"type":"Point","coordinates":[-119.62977562,27.5211202]},"properties":{"name":"Atqasuk","pop":201,"rank":4}},{"type":"Feature","geometry":{"type":"Point","coordinates":[-119.98679839,23.60023726]},"properties":{"name":"Port Heiden","pop":102,"rank":4}},{"type":"Feature","geometry":{"type":"Point","coordinates":[-120.13883321,23.30139806]},"properties":{"name":"Perryville","pop":113,"rank":4}},{"type":"Feature","geometry":{"type":"Point","coordinates":[-119.94429048,24.2114024]},"properties":{"name":"Dillingham","pop":2488,"rank":4}},{"type":"Feature","geometry":{"type":"Point","coordinates":[-120.8452677,24.23008797]},"properties":{"name":"Goodnews Bay","pop":230,"rank":4}},{"type":"Feature","geometry":{"type":"Point","coordinates":[-120.36773949,24.77620147]},"properties":{"name":"Nyac","pop":100,"rank":4}},{"type":"Feature","geometry":{"type":"Point","coordinates":[-121.90917881,24.65479123]},"properties":{"name":"Tununak","pop":352,"rank":4}},{"type":"Feature","geometry":{"type":"Point","coordinates":[-121.46641260999999,25.08980196]},"properties":{"name":"Mountain Village","pop":755,"rank":4}},{"type":"Feature","geometry":{"type":"Point","coordinates":[-121.69666767999999,25.29032449]},"properties":{"name":"Emmonak","pop":100,"rank":4}},{"type":"Feature","geometry":{"type":"Point","coordinates":[-120.01435071,25.73988684]},"properties":{"name":"Kaltag","pop":190,"rank":4}},{"type":"Feature","geometry":{"type":"Point","coordinates":[-122.22962794,26.011443709999998]},"properties":{"name":"Teller","pop":83,"rank":4}},{"type":"Feature","geometry":{"type":"Point","coordinates":[-119.7182465,25.90028381]},"properties":{"name":"Koyukuk","pop":101,"rank":4}},{"type":"Feature","geometry":{"type":"Point","coordinates":[-119.48048333,26.48810134]},"properties":{"name":"Kobuk","pop":151,"rank":4}},{"type":"Feature","geometry":{"type":"Point","coordinates":[-120.38772339,26.400124910000002]},"properties":{"name":"Selawik","pop":832,"rank":4}},{"type":"Feature","geometry":{"type":"Point","coordinates":[-117.51673383,25.158895910000002]},"properties":{"name":"Talkeetna","pop":1078,"rank":4}},{"type":"Feature","geometry":{"type":"Point","coordinates":[-117.1015272,24.71240553]},"properties":{"name":"Whittier","pop":177,"rank":4}},{"type":"Feature","geometry":{"type":"Point","coordinates":[-117.50610127,25.08810865]},"properties":{"name":"Montana","pop":10,"rank":4}},{"type":"Feature","geometry":{"type":"Point","coordinates":[-118.15553394,25.61102099]},"properties":{"name":"Lake Minchumina","pop":32,"rank":4}},{"type":"Feature","geometry":{"type":"Point","coordinates":[-117.18072910000001,25.46856226]},"properties":{"name":"Cantwell","pop":222,"rank":4}},{"type":"Feature","geometry":{"type":"Point","coordinates":[-116.14583684,25.14369237]},"properties":{"name":"Gulkana","pop":119,"rank":4}},{"type":"Feature","geometry":{"type":"Point","coordinates":[-114.93299913,25.87351855]},"properties":{"name":"Eagle","pop":104,"rank":4}},{"type":"Feature","geometry":{"type":"Point","coordinates":[-117.22197087,25.80850113]},"properties":{"name":"Nenana","pop":75,"rank":4}},{"type":"Feature","geometry":{"type":"Point","coordinates":[-116.27923626,25.6892337]},"properties":{"name":"Big Delta","pop":591,"rank":4}},{"type":"Feature","geometry":{"type":"Point","coordinates":[-118.25219471,26.38899007]},"properties":{"name":"Allakaket","pop":97,"rank":4}},{"type":"Feature","geometry":{"type":"Point","coordinates":[-118.0878491,25.98484317]},"properties":{"name":"Tanana","pop":308,"rank":4}},{"type":"Feature","geometry":{"type":"Point","coordinates":[-92.536404,47.523674]},"properties":{"name":"Virginia","pop":8709,"rank":4}},{"type":"Feature","geometry":{"type":"Point","coordinates":[-91.639197,44.050424]},"properties":{"name":"Winona","pop":32897,"rank":4}},{"type":"Feature","geometry":{"type":"Point","coordinates":[-92.469689,44.022053]},"properties":{"name":"Rochester","pop":108511,"rank":3}},{"type":"Feature","geometry":{"type":"Point","coordinates":[-93.24251,44.650103]},"properties":{"name":"Lakeville","pop":261308,"rank":3}},{"type":"Feature","geometry":{"type":"Point","coordinates":[-91.825698,47.900421]},"properties":{"name":"Ely","pop":3731,"rank":4}},{"type":"Feature","geometry":{"type":"Point","coordinates":[-96.742193,46.874308]},"properties":{"name":"Moorhead","pop":35528,"rank":4}},{"type":"Feature","geometry":{"type":"Point","coordinates":[-94.162222,45.56121]},"properties":{"name":"St. Cloud","pop":112794,"rank":3}},{"type":"Feature","geometry":{"type":"Point","coordinates":[-105.839984,46.408884]},"properties":{"name":"Miles City","pop":8615,"rank":4}},{"type":"Feature","geometry":{"type":"Point","coordinates":[-111.037832,45.680092]},"properties":{"name":"Bozeman","pop":44921,"rank":4}},{"type":"Feature","geometry":{"type":"Point","coordinates":[-106.635259,48.18397]},"properties":{"name":"Glasgow","pop":3240,"rank":4}},{"type":"Feature","geometry":{"type":"Point","coordinates":[-102.788801,46.883997]},"properties":{"name":"Dickinson","pop":16399,"rank":4}},{"type":"Feature","geometry":{"type":"Point","coordinates":[-98.702978,46.906012]},"properties":{"name":"Jamestown","pop":15081,"rank":4}},{"type":"Feature","geometry":{"type":"Point","coordinates":[-103.628,48.156788]},"properties":{"name":"Williston","pop":13564,"rank":4}},{"type":"Feature","geometry":{"type":"Point","coordinates":[-109.9954168,25.6804416]},"properties":{"name":"Lihue","pop":15536,"rank":4}},{"type":"Feature","geometry":{"type":"Point","coordinates":[-108.9188968,25.3024736]},"properties":{"name":"Wahiawa","pop":174766,"rank":3}},{"type":"Feature","geometry":{"type":"Point","coordinates":[-107.70377679999999,24.81318]},"properties":{"name":"Wailuku","pop":52148,"rank":4}},{"type":"Feature","geometry":{"type":"Point","coordinates":[-111.296912,42.322622]},"properties":{"name":"Montpelier","pop":2997,"rank":4}},{"type":"Feature","geometry":{"type":"Point","coordinates":[-114.460569,42.560954]},"properties":{"name":"Twin Falls","pop":47315,"rank":4}},{"type":"Feature","geometry":{"type":"Point","coordinates":[-116.670538,43.660964]},"properties":{"name":"Caldwell","pop":132476,"rank":3}},{"type":"Feature","geometry":{"type":"Point","coordinates":[-113.894997,45.175678]},"properties":{"name":"Salmon","pop":3601,"rank":4}},{"type":"Feature","geometry":{"type":"Point","coordinates":[-116.779446,47.678083]},"properties":{"name":"Coeur d'Alene","pop":34514,"rank":4}},{"type":"Feature","geometry":{"type":"Point","coordinates":[-119.291101,46.291811]},"properties":{"name":"Richland","pop":44869,"rank":4}},{"type":"Feature","geometry":{"type":"Point","coordinates":[-122.486927,48.760136]},"properties":{"name":"Bellingham","pop":99662,"rank":4}},{"type":"Feature","geometry":{"type":"Point","coordinates":[-122.936951,46.13872]},"properties":{"name":"Longview","pop":66231,"rank":4}},{"type":"Feature","geometry":{"type":"Point","coordinates":[-118.341883,46.065159]},"properties":{"name":"Walla Walla","pop":45150,"rank":4}},{"type":"Feature","geometry":{"type":"Point","coordinates":[-123.814391,46.974896]},"properties":{"name":"Aberdeen","pop":32745,"rank":4}},{"type":"Feature","geometry":{"type":"Point","coordinates":[-122.642017,47.573596]},"properties":{"name":"Bremerton","pop":126820,"rank":3}},{"type":"Feature","geometry":{"type":"Point","coordinates":[-122.199968,47.960417]},"properties":{"name":"Everett","pop":486903,"rank":2}},{"type":"Feature","geometry":{"type":"Point","coordinates":[-114.567488,35.148176]},"properties":{"name":"Bullhead City","pop":37989,"rank":4}},{"type":"Feature","geometry":{"type":"Point","coordinates":[-110.696815,35.02361]},"properties":{"name":"Winslow","pop":9931,"rank":4}},{"type":"Feature","geometry":{"type":"Point","coordinates":[-112.724655,32.950378]},"properties":{"name":"Gila Bend","pop":2088,"rank":4}},{"type":"Feature","geometry":{"type":"Point","coordinates":[-110.066884,31.713141]},"properties":{"name":"Tombstone","pop":1570,"rank":4}},{"type":"Feature","geometry":{"type":"Point","coordinates":[-109.831395,32.253211]},"properties":{"name":"Willcox","pop":5146,"rank":4}},{"type":"Feature","geometry":{"type":"Point","coordinates":[-111.925418,33.488537]},"properties":{"name":"Scottsdale","pop":15401,"rank":4}},{"type":"Feature","geometry":{"type":"Point","coordinates":[-114.052222,35.189879]},"properties":{"name":"Kingman","pop":42182,"rank":4}},{"type":"Feature","geometry":{"type":"Point","coordinates":[-112.138592,36.054788]},"properties":{"name":"Grand Canyon","pop":1550,"rank":4}},{"type":"Feature","geometry":{"type":"Point","coordinates":[-124.082757,40.862706]},"properties":{"name":"Arcata","pop":20905,"rank":4}},{"type":"Feature","geometry":{"type":"Point","coordinates":[-121.289739,37.958134]},"properties":{"name":"Stockton","pop":685306,"rank":2}},{"type":"Feature","geometry":{"type":"Point","coordinates":[-117.021886,34.899018]},"properties":{"name":"Barstow","pop":21119,"rank":4}},{"type":"Feature","geometry":{"type":"Point","coordinates":[-117.290319,34.536508]},"properties":{"name":"Victorville","pop":83496,"rank":4}},{"type":"Feature","geometry":{"type":"Point","coordinates":[-118.138872,34.160381]},"properties":{"name":"Pasadena","pop":144618,"rank":3}},{"type":"Feature","geometry":{"type":"Point","coordinates":[-119.316009,36.325029]},"properties":{"name":"Visalia","pop":121968,"rank":3}},{"type":"Feature","geometry":{"type":"Point","coordinates":[-115.558048,32.792377]},"properties":{"name":"El Centro","pop":45000,"rank":4}},{"type":"Feature","geometry":{"type":"Point","coordinates":[-120.658589,35.283181]},"properties":{"name":"San Luis Obispo","pop":65386,"rank":4}},{"type":"Feature","geometry":{"type":"Point","coordinates":[-120.481933,37.302618]},"properties":{"name":"Merced","pop":96091,"rank":4}},{"type":"Feature","geometry":{"type":"Point","coordinates":[-121.615766,39.141033]},"properties":{"name":"Yuba City","pop":116217,"rank":3}},{"type":"Feature","geometry":{"type":"Point","coordinates":[-122.390576,40.587043]},"properties":{"name":"Redding","pop":96058,"rank":4}},{"type":"Feature","geometry":{"type":"Point","coordinates":[-122.699989,38.450404]},"properties":{"name":"Santa Rosa","pop":231792,"rank":3}},{"type":"Feature","geometry":{"type":"Point","coordinates":[-117.345811,33.191499]},"properties":{"name":"Oceanside","pop":609854,"rank":2}},{"type":"Feature","geometry":{"type":"Point","coordinates":[-120.98999,37.655413]},"properties":{"name":"Modesto","pop":323386,"rank":2}},{"type":"Feature","geometry":{"type":"Point","coordinates":[-117.82995,33.680411]},"properties":{"name":"Irvine","pop":3010232,"rank":1}},{"type":"Feature","geometry":{"type":"Point","coordinates":[-123.210862,39.154237]},"properties":{"name":"Ukiah","pop":27828,"rank":4}},{"type":"Feature","geometry":{"type":"Point","coordinates":[-114.613351,34.848427]},"properties":{"name":"Needles","pop":6974,"rank":4}},{"type":"Feature","geometry":{"type":"Point","coordinates":[-118.394076,37.363958]},"properties":{"name":"Bishop","pop":4827,"rank":4}},{"type":"Feature","geometry":{"type":"Point","coordinates":[-116.533053,33.777356]},"properties":{"name":"Palm Springs","pop":390115,"rank":2}},{"type":"Feature","geometry":{"type":"Point","coordinates":[-120.436639,34.940127]},"properties":{"name":"Santa Maria","pop":110705,"rank":3}},{"type":"Feature","geometry":{"type":"Point","coordinates":[-119.344121,36.207026]},"properties":{"name":"Tulare","pop":55908,"rank":4}},{"type":"Feature","geometry":{"type":"Point","coordinates":[-122.309393,41.310358]},"properties":{"name":"Mt. Shasta","pop":3855,"rank":4}},{"type":"Feature","geometry":{"type":"Point","coordinates":[-124.200492,41.756455]},"properties":{"name":"Crescent City","pop":11534,"rank":4}},{"type":"Feature","geometry":{"type":"Point","coordinates":[-105.058869,40.560688]},"properties":{"name":"Fort Collins","pop":228385,"rank":3}},{"type":"Feature","geometry":{"type":"Point","coordinates":[-104.630007,38.280388]},"properties":{"name":"Pueblo","pop":112195,"rank":3}},{"type":"Feature","geometry":{"type":"Point","coordinates":[-102.619406,38.086498]},"properties":{"name":"Lamar","pop":8620,"rank":4}},{"type":"Feature","geometry":{"type":"Point","coordinates":[-104.506396,37.171335]},"properties":{"name":"Trinidad","pop":9156,"rank":4}},{"type":"Feature","geometry":{"type":"Point","coordinates":[-106.92829,38.544765]},"properties":{"name":"Gunnison","pop":7324,"rank":4}},{"type":"Feature","geometry":{"type":"Point","coordinates":[-107.879989,37.275643]},"properties":{"name":"Durango","pop":23233,"rank":4}},{"type":"Feature","geometry":{"type":"Point","coordinates":[-107.86552,38.477275]},"properties":{"name":"Montrose","pop":21789,"rank":4}},{"type":"Feature","geometry":{"type":"Point","coordinates":[-107.550397,40.51728]},"properties":{"name":"Craig","pop":9391,"rank":4}},{"type":"Feature","geometry":{"type":"Point","coordinates":[-105.244542,40.008137]},"properties":{"name":"Boulder","pop":122274,"rank":3}},{"type":"Feature","geometry":{"type":"Point","coordinates":[-114.83158,35.978952]},"properties":{"name":"Boulder City","pop":15479,"rank":4}},{"type":"Feature","geometry":{"type":"Point","coordinates":[-117.734685,40.973376]},"properties":{"name":"Winnemucca","pop":9666,"rank":4}},{"type":"Feature","geometry":{"type":"Point","coordinates":[-104.522468,33.394537]},"properties":{"name":"Roswell","pop":46096,"rank":4}},{"type":"Feature","geometry":{"type":"Point","coordinates":[-103.204771,34.405069]},"properties":{"name":"Clovis","pop":33792,"rank":4}},{"type":"Feature","geometry":{"type":"Point","coordinates":[-106.777808,32.312613]},"properties":{"name":"Las Cruces","pop":115167,"rank":3}},{"type":"Feature","geometry":{"type":"Point","coordinates":[-103.140614,32.712614]},"properties":{"name":"Hobbs","pop":28738,"rank":4}},{"type":"Feature","geometry":{"type":"Point","coordinates":[-106.898989,34.062118]},"properties":{"name":"Socorro","pop":8668,"rank":4}},{"type":"Feature","geometry":{"type":"Point","coordinates":[-108.733994,35.524071]},"properties":{"name":"Gallup","pop":23800,"rank":4}},{"type":"Feature","geometry":{"type":"Point","coordinates":[-104.439889,36.897398]},"properties":{"name":"Raton","pop":7073,"rank":4}},{"type":"Feature","geometry":{"type":"Point","coordinates":[-103.725514,35.169803]},"properties":{"name":"Tucumcari","pop":5313,"rank":4}},{"type":"Feature","geometry":{"type":"Point","coordinates":[-123.356099,43.218433]},"properties":{"name":"Roseburg","pop":30479,"rank":4}},{"type":"Feature","geometry":{"type":"Point","coordinates":[-118.787489,45.672598]},"properties":{"name":"Pendleton","pop":16799,"rank":4}},{"type":"Feature","geometry":{"type":"Point","coordinates":[-118.952026,44.416525]},"properties":{"name":"John Day","pop":1573,"rank":4}},{"type":"Feature","geometry":{"type":"Point","coordinates":[-123.327186,42.43954]},"properties":{"name":"Grants Pass","pop":46189,"rank":4}},{"type":"Feature","geometry":{"type":"Point","coordinates":[-123.279979,44.572356]},"properties":{"name":"Corvallis","pop":59030,"rank":4}},{"type":"Feature","geometry":{"type":"Point","coordinates":[-123.086942,44.620492]},"properties":{"name":"Albany","pop":51376,"rank":4}},{"type":"Feature","geometry":{"type":"Point","coordinates":[-123.829997,46.188381]},"properties":{"name":"Astoria","pop":10011,"rank":4}},{"type":"Feature","geometry":{"type":"Point","coordinates":[-111.833598,41.73594]},"properties":{"name":"Logan","pop":72490,"rank":4}},{"type":"Feature","geometry":{"type":"Point","coordinates":[-112.827207,37.842534]},"properties":{"name":"Parowan","pop":2571,"rank":4}},{"type":"Feature","geometry":{"type":"Point","coordinates":[-112.525494,37.047388]},"properties":{"name":"Kanab","pop":3442,"rank":4}},{"type":"Feature","geometry":{"type":"Point","coordinates":[-109.3422,37.871783]},"properties":{"name":"Monticello","pop":1864,"rank":4}},{"type":"Feature","geometry":{"type":"Point","coordinates":[-109.549189,38.573704]},"properties":{"name":"Moab","pop":5730,"rank":4}},{"type":"Feature","geometry":{"type":"Point","coordinates":[-110.810017,39.599791]},"properties":{"name":"Price","pop":10281,"rank":4}},{"type":"Feature","geometry":{"type":"Point","coordinates":[-113.061094,37.677428]},"properties":{"name":"Cedar City","pop":27738,"rank":4}},{"type":"Feature","geometry":{"type":"Point","coordinates":[-109.528002,40.455398]},"properties":{"name":"Vernal","pop":14353,"rank":4}},{"type":"Feature","geometry":{"type":"Point","coordinates":[-111.968034,41.232379]},"properties":{"name":"Ogden","pop":377224,"rank":2}},{"type":"Feature","geometry":{"type":"Point","coordinates":[-109.464983,41.514558]},"properties":{"name":"Green River","pop":11358,"rank":4}},{"type":"Feature","geometry":{"type":"Point","coordinates":[-107.234292,41.790665]},"properties":{"name":"Rawlins","pop":8533,"rank":4}},{"type":"Feature","geometry":{"type":"Point","coordinates":[-105.384534,42.756472]},"properties":{"name":"Douglas","pop":6298,"rank":4}},{"type":"Feature","geometry":{"type":"Point","coordinates":[-108.395048,43.02816]},"properties":{"name":"Riverton","pop":11508,"rank":4}},{"type":"Feature","geometry":{"type":"Point","coordinates":[-108.214671,43.645978]},"properties":{"name":"Thermopolis","pop":3445,"rank":4}},{"type":"Feature","geometry":{"type":"Point","coordinates":[-105.50525,44.283174]},"properties":{"name":"Gillette","pop":29113,"rank":4}},{"type":"Feature","geometry":{"type":"Point","coordinates":[-90.704164,35.842578]},"properties":{"name":"Jonesboro","pop":58619,"rank":4}},{"type":"Feature","geometry":{"type":"Point","coordinates":[-94.037475,33.442105]},"properties":{"name":"Texarkana","pop":74414,"rank":4}},{"type":"Feature","geometry":{"type":"Point","coordinates":[-92.003051,34.228698]},"properties":{"name":"Pine Bluff","pop":53217,"rank":4}},{"type":"Feature","geometry":{"type":"Point","coordinates":[-93.055003,34.503952]},"properties":{"name":"Hot Springs","pop":44182,"rank":4}},{"type":"Feature","geometry":{"type":"Point","coordinates":[-94.398357,35.386224]},"properties":{"name":"Fort Smith","pop":93988,"rank":4}},{"type":"Feature","geometry":{"type":"Point","coordinates":[-94.157209,36.062978]},"properties":{"name":"Fayetteville","pop":151671,"rank":3}},{"type":"Feature","geometry":{"type":"Point","coordinates":[-92.451318,35.091281]},"properties":{"name":"Conway","pop":61995,"rank":4}},{"type":"Feature","geometry":{"type":"Point","coordinates":[-92.66252,33.213927]},"properties":{"name":"El Dorado","pop":22416,"rank":4}},{"type":"Feature","geometry":{"type":"Point","coordinates":[-90.58753,41.553987]},"properties":{"name":"Davenport","pop":255738,"rank":3}},{"type":"Feature","geometry":{"type":"Point","coordinates":[-91.11277,40.807934]},"properties":{"name":"Burlington","pop":29773,"rank":4}},{"type":"Feature","geometry":{"type":"Point","coordinates":[-90.664451,42.500932]},"properties":{"name":"Dubuque","pop":62483,"rank":4}},{"type":"Feature","geometry":{"type":"Point","coordinates":[-92.342798,42.493154]},"properties":{"name":"Waterloo","pop":98347,"rank":4}},{"type":"Feature","geometry":{"type":"Point","coordinates":[-96.399992,42.500389]},"properties":{"name":"Sioux City","pop":90932,"rank":4}},{"type":"Feature","geometry":{"type":"Point","coordinates":[-95.8608,41.262273]},"properties":{"name":"Council Bluffs","pop":101805,"rank":3}},{"type":"Feature","geometry":{"type":"Point","coordinates":[-93.623091,42.018668]},"properties":{"name":"Ames","pop":57104,"rank":4}},{"type":"Feature","geometry":{"type":"Point","coordinates":[-93.200833,43.154018]},"properties":{"name":"Mason City","pop":27802,"rank":4}},{"type":"Feature","geometry":{"type":"Point","coordinates":[-96.181375,38.404231]},"properties":{"name":"Emporia","pop":29048,"rank":4}},{"type":"Feature","geometry":{"type":"Point","coordinates":[-97.607179,38.82467]},"properties":{"name":"Salina","pop":48031,"rank":4}},{"type":"Feature","geometry":{"type":"Point","coordinates":[-100.018195,37.760058]},"properties":{"name":"Dodge City","pop":25932,"rank":4}},{"type":"Feature","geometry":{"type":"Point","coordinates":[-95.626318,37.038061]},"properties":{"name":"Coffeyville","pop":11760,"rank":4}},{"type":"Feature","geometry":{"type":"Point","coordinates":[-90.506166,38.784285]},"properties":{"name":"St. Charles","pop":360485,"rank":2}},{"type":"Feature","geometry":{"type":"Point","coordinates":[-90.402684,36.760197]},"properties":{"name":"Poplar Bluff","pop":20662,"rank":4}},{"type":"Feature","geometry":{"type":"Point","coordinates":[-94.513079,37.084596]},"properties":{"name":"Joplin","pop":73763,"rank":4}},{"type":"Feature","geometry":{"type":"Point","coordinates":[-92.33391,38.952078]},"properties":{"name":"Columbia","pop":398093,"rank":2}},{"type":"Feature","geometry":{"type":"Point","coordinates":[-94.846392,39.769031]},"properties":{"name":"St. Joseph","pop":78012,"rank":4}},{"type":"Feature","geometry":{"type":"Point","coordinates":[-100.626168,40.205594]},"properties":{"name":"McCook","pop":8012,"rank":4}},{"type":"Feature","geometry":{"type":"Point","coordinates":[-97.433598,42.028712]},"properties":{"name":"Norfolk","pop":25030,"rank":4}},{"type":"Feature","geometry":{"type":"Point","coordinates":[-100.7705,41.136286]},"properties":{"name":"North Platte","pop":25247,"rank":4}},{"type":"Feature","geometry":{"type":"Point","coordinates":[-102.978273,41.1398]},"properties":{"name":"Sidney","pop":6492,"rank":4}},{"type":"Feature","geometry":{"type":"Point","coordinates":[-103.660686,41.867508]},"properties":{"name":"Scottsbluff","pop":25475,"rank":4}},{"type":"Feature","geometry":{"type":"Point","coordinates":[-103.003077,42.827914]},"properties":{"name":"Chadron","pop":5798,"rank":4}},{"type":"Feature","geometry":{"type":"Point","coordinates":[-98.409973,34.599037]},"properties":{"name":"Lawton","pop":91752,"rank":4}},{"type":"Feature","geometry":{"type":"Point","coordinates":[-97.441991,35.22047]},"properties":{"name":"Norman","pop":113525,"rank":3}},{"type":"Feature","geometry":{"type":"Point","coordinates":[-95.369435,35.748217]},"properties":{"name":"Muskogee","pop":39295,"rank":4}},{"type":"Feature","geometry":{"type":"Point","coordinates":[-97.085273,36.707358]},"properties":{"name":"Ponca City","pop":25273,"rank":4}},{"type":"Feature","geometry":{"type":"Point","coordinates":[-96.933784,35.34279]},"properties":{"name":"Shawnee","pop":29628,"rank":4}},{"type":"Feature","geometry":{"type":"Point","coordinates":[-99.39769,36.433421]},"properties":{"name":"Woodward","pop":12931,"rank":4}},{"type":"Feature","geometry":{"type":"Point","coordinates":[-101.479501,36.685809]},"properties":{"name":"Guymon","pop":11178,"rank":4}},{"type":"Feature","geometry":{"type":"Point","coordinates":[-97.39249,42.882019]},"properties":{"name":"Yankton","pop":15580,"rank":4}},{"type":"Feature","geometry":{"type":"Point","coordinates":[-96.78803,44.306764]},"properties":{"name":"Brookings","pop":22411,"rank":4}},{"type":"Feature","geometry":{"type":"Point","coordinates":[-98.026198,43.714294]},"properties":{"name":"Mitchell","pop":15205,"rank":4}},{"type":"Feature","geometry":{"type":"Point","coordinates":[-98.486402,45.465118]},"properties":{"name":"Aberdeen","pop":26041,"rank":4}},{"type":"Feature","geometry":{"type":"Point","coordinates":[-100.434707,45.540126]},"properties":{"name":"Mobridge","pop":3156,"rank":4}},{"type":"Feature","geometry":{"type":"Point","coordinates":[-90.719486,29.595931]},"properties":{"name":"Houma","pop":64592,"rank":4}},{"type":"Feature","geometry":{"type":"Point","coordinates":[-92.119194,32.509603]},"properties":{"name":"Monroe","pop":101724,"rank":3}},{"type":"Feature","geometry":{"type":"Point","coordinates":[-95.455864,30.312063]},"properties":{"name":"Conroe","pop":41643,"rank":4}},{"type":"Feature","geometry":{"type":"Point","coordinates":[-94.655267,31.603742]},"properties":{"name":"Nacogdoches","pop":30691,"rank":4}},{"type":"Feature","geometry":{"type":"Point","coordinates":[-100.489277,28.711024]},"properties":{"name":"Eagle Pass","pop":53276,"rank":4}},{"type":"Feature","geometry":{"type":"Point","coordinates":[-98.159962,26.303186]},"properties":{"name":"Edinburg","pop":150000,"rank":3}},{"type":"Feature","geometry":{"type":"Point","coordinates":[-97.855846,27.515955]},"properties":{"name":"Kingsville","pop":25264,"rank":4}},{"type":"Feature","geometry":{"type":"Point","coordinates":[-93.928593,29.898988]},"properties":{"name":"Port Arthur","pop":56945,"rank":4}},{"type":"Feature","geometry":{"type":"Point","coordinates":[-95.550587,30.723769]},"properties":{"name":"Huntsville","pop":35590,"rank":4}},{"type":"Feature","geometry":{"type":"Point","coordinates":[-97.727482,31.117285]},"properties":{"name":"Killeen","pop":137919,"rank":3}},{"type":"Feature","geometry":{"type":"Point","coordinates":[-94.72888,31.338435]},"properties":{"name":"Lufkin","pop":43264,"rank":4}},{"type":"Feature","geometry":{"type":"Point","coordinates":[-100.896384,29.362948]},"properties":{"name":"Del Rio","pop":36068,"rank":4}},{"type":"Feature","geometry":{"type":"Point","coordinates":[-100.436697,31.464008]},"properties":{"name":"San Angelo","pop":88256,"rank":4}},{"type":"Feature","geometry":{"type":"Point","coordinates":[-96.608584,33.635995]},"properties":{"name":"Sherman","pop":40284,"rank":4}},{"type":"Feature","geometry":{"type":"Point","coordinates":[-94.101683,30.086263]},"properties":{"name":"Beaumont","pop":111485,"rank":3}},{"type":"Feature","geometry":{"type":"Point","coordinates":[-95.96436,28.981111]},"properties":{"name":"Bay City","pop":18663,"rank":4}},{"type":"Feature","geometry":{"type":"Point","coordinates":[-96.629694,28.616017]},"properties":{"name":"Port Lavaca","pop":11743,"rank":4}},{"type":"Feature","geometry":{"type":"Point","coordinates":[-98.144898,27.226903]},"properties":{"name":"Falfurrias","pop":5349,"rank":4}},{"type":"Feature","geometry":{"type":"Point","coordinates":[-97.75084,28.405978]},"properties":{"name":"Beeville","pop":13004,"rank":4}},{"type":"Feature","geometry":{"type":"Point","coordinates":[-102.884997,30.891692]},"properties":{"name":"Fort Stockton","pop":7721,"rank":4}},{"type":"Feature","geometry":{"type":"Point","coordinates":[-103.499895,31.415794]},"properties":{"name":"Pecos","pop":8372,"rank":4}},{"type":"Feature","geometry":{"type":"Point","coordinates":[-101.966887,35.862396]},"properties":{"name":"Dumas","pop":13629,"rank":4}},{"type":"Feature","geometry":{"type":"Point","coordinates":[-97.128837,33.215762]},"properties":{"name":"Denton","pop":176930,"rank":3}},{"type":"Feature","geometry":{"type":"Point","coordinates":[-102.0975,32.030718]},"properties":{"name":"Midland","pop":98501,"rank":4}},{"type":"Feature","geometry":{"type":"Point","coordinates":[-97.363008,31.102093]},"properties":{"name":"Temple","pop":61161,"rank":4}},{"type":"Feature","geometry":{"type":"Point","coordinates":[-72.900005,41.330383]},"properties":{"name":"New Haven","pop":846766,"rank":2}},{"type":"Feature","geometry":{"type":"Point","coordinates":[-71.316691,42.633688]},"properties":{"name":"Lowell","pop":723629,"rank":2}},{"type":"Feature","geometry":{"type":"Point","coordinates":[-71.800021,42.270429]},"properties":{"name":"Worcester","pop":287365,"rank":3}},{"type":"Feature","geometry":{"type":"Point","coordinates":[-71.455287,42.995992]},"properties":{"name":"Manchester","pop":196566,"rank":3}},{"type":"Feature","geometry":{"type":"Point","coordinates":[-71.313358,41.490399]},"properties":{"name":"Newport","pop":45968,"rank":4}},{"type":"Feature","geometry":{"type":"Point","coordinates":[-85.390587,31.223455]},"properties":{"name":"Dothan","pop":61741,"rank":4}},{"type":"Feature","geometry":{"type":"Point","coordinates":[-87.544176,33.225115]},"properties":{"name":"Tuscaloosa","pop":121373,"rank":3}},{"type":"Feature","geometry":{"type":"Point","coordinates":[-86.006647,34.01455]},"properties":{"name":"Gadsden","pop":41709,"rank":4}},{"type":"Feature","geometry":{"type":"Point","coordinates":[-85.843996,31.327815]},"properties":{"name":"Enterprise","pop":24205,"rank":4}},{"type":"Feature","geometry":{"type":"Point","coordinates":[-87.021159,32.407568]},"properties":{"name":"Selma","pop":20126,"rank":4}},{"type":"Feature","geometry":{"type":"Point","coordinates":[-80.291079,25.715419]},"properties":{"name":"Coral Gables","pop":150000,"rank":3}},{"type":"Feature","geometry":{"type":"Point","coordinates":[-81.979684,26.60291]},"properties":{"name":"Cape Coral","pop":132489,"rank":3}},{"type":"Feature","geometry":{"type":"Point","coordinates":[-81.794992,26.142059]},"properties":{"name":"Naples","pop":262306,"rank":3}},{"type":"Feature","geometry":{"type":"Point","coordinates":[-80.325805,27.446786]},"properties":{"name":"Fort Pierce","pop":228245,"rank":3}},{"type":"Feature","geometry":{"type":"Point","coordinates":[-81.407781,28.292057]},"properties":{"name":"Kissimmee","pop":225494,"rank":3}},{"type":"Feature","geometry":{"type":"Point","coordinates":[-80.807791,28.612348]},"properties":{"name":"Titusville","pop":52311,"rank":4}},{"type":"Feature","geometry":{"type":"Point","coordinates":[-81.314711,29.894879]},"properties":{"name":"St. Augustine","pop":76331,"rank":4}},{"type":"Feature","geometry":{"type":"Point","coordinates":[-82.140268,29.187351]},"properties":{"name":"Ocala","pop":141382,"rank":3}},{"type":"Feature","geometry":{"type":"Point","coordinates":[-80.141785,26.136065]},"properties":{"name":"Fort Lauderdale","pop":2042042,"rank":1}},{"type":"Feature","geometry":{"type":"Point","coordinates":[-84.992523,29.725613]},"properties":{"name":"Apalachicola","pop":2284,"rank":4}},{"type":"Feature","geometry":{"type":"Point","coordinates":[-80.391124,27.642252]},"properties":{"name":"Vero Beach","pop":86039,"rank":4}},{"type":"Feature","geometry":{"type":"Point","coordinates":[-83.278597,30.832858]},"properties":{"name":"Valdosta","pop":61179,"rank":4}},{"type":"Feature","geometry":{"type":"Point","coordinates":[-84.15583,31.57873]},"properties":{"name":"Albany","pop":88766,"rank":4}},{"type":"Feature","geometry":{"type":"Point","coordinates":[-83.378022,33.961298]},"properties":{"name":"Athens","pop":110301,"rank":3}},{"type":"Feature","geometry":{"type":"Point","coordinates":[-83.630048,32.850384]},"properties":{"name":"Macon","pop":115592,"rank":3}},{"type":"Feature","geometry":{"type":"Point","coordinates":[-84.980017,32.470433]},"properties":{"name":"Columbus","pop":217980,"rank":3}},{"type":"Feature","geometry":{"type":"Point","coordinates":[-82.85069,31.507778]},"properties":{"name":"Douglas","pop":13441,"rank":4}},{"type":"Feature","geometry":{"type":"Point","coordinates":[-82.918283,32.537457]},"properties":{"name":"Dublin","pop":22623,"rank":4}},{"type":"Feature","geometry":{"type":"Point","coordinates":[-89.092764,30.367564]},"properties":{"name":"Gulfport","pop":82165,"rank":4}},{"type":"Feature","geometry":{"type":"Point","coordinates":[-89.290245,31.327273]},"properties":{"name":"Hattiesburg","pop":58874,"rank":4}},{"type":"Feature","geometry":{"type":"Point","coordinates":[-88.70333,34.257921]},"properties":{"name":"Tupelo","pop":35956,"rank":4}},{"type":"Feature","geometry":{"type":"Point","coordinates":[-91.061688,33.410375]},"properties":{"name":"Greenville","pop":38107,"rank":4}},{"type":"Feature","geometry":{"type":"Point","coordinates":[-91.387507,31.554804]},"properties":{"name":"Natchez","pop":23863,"rank":4}},{"type":"Feature","geometry":{"type":"Point","coordinates":[-79.762791,34.195676]},"properties":{"name":"Florence","pop":57438,"rank":4}},{"type":"Feature","geometry":{"type":"Point","coordinates":[-82.394154,34.852923]},"properties":{"name":"Greenville","pop":350954,"rank":2}},{"type":"Feature","geometry":{"type":"Point","coordinates":[-80.341722,33.920654]},"properties":{"name":"Sumter","pop":50868,"rank":4}},{"type":"Feature","geometry":{"type":"Point","coordinates":[-82.650263,34.503745]},"properties":{"name":"Anderson","pop":61558,"rank":4}},{"type":"Feature","geometry":{"type":"Point","coordinates":[-81.720604,33.549462]},"properties":{"name":"Aiken","pop":46196,"rank":4}},{"type":"Feature","geometry":{"type":"Point","coordinates":[-80.689504,32.432166]},"properties":{"name":"Beaufort","pop":31626,"rank":4}},{"type":"Feature","geometry":{"type":"Point","coordinates":[-81.03,34.940385]},"properties":{"name":"Rock Hill","pop":94564,"rank":4}},{"type":"Feature","geometry":{"type":"Point","coordinates":[-88.954736,39.840706]},"properties":{"name":"Decatur","pop":77868,"rank":4}},{"type":"Feature","geometry":{"type":"Point","coordinates":[-90.184222,38.890997]},"properties":{"name":"Alton","pop":84276,"rank":4}},{"type":"Feature","geometry":{"type":"Point","coordinates":[-91.409728,39.935972]},"properties":{"name":"Quincy","pop":47108,"rank":4}},{"type":"Feature","geometry":{"type":"Point","coordinates":[-88.204188,40.109992]},"properties":{"name":"Urbana","pop":144074,"rank":3}},{"type":"Feature","geometry":{"type":"Point","coordinates":[-88.993597,40.484595]},"properties":{"name":"Bloomington","pop":128979,"rank":3}},{"type":"Feature","geometry":{"type":"Point","coordinates":[-87.861108,41.12037]},"properties":{"name":"Kankakee","pop":69608,"rank":4}},{"type":"Feature","geometry":{"type":"Point","coordinates":[-87.844726,42.364041]},"properties":{"name":"Waukegan","pop":200000,"rank":3}},{"type":"Feature","geometry":{"type":"Point","coordinates":[-88.299996,41.765395]},"properties":{"name":"Aurora","pop":350000,"rank":2}},{"type":"Feature","geometry":{"type":"Point","coordinates":[-89.220249,37.72683]},"properties":{"name":"Carbondale","pop":32444,"rank":4}},{"type":"Feature","geometry":{"type":"Point","coordinates":[-90.000228,38.525154]},"properties":{"name":"Belleville","pop":143900,"rank":3}},{"type":"Feature","geometry":{"type":"Point","coordinates":[-86.526409,39.165657]},"properties":{"name":"Bloomington","pop":100310,"rank":3}},{"type":"Feature","geometry":{"type":"Point","coordinates":[-85.386375,40.19376]},"properties":{"name":"Muncie","pop":85449,"rank":4}},{"type":"Feature","geometry":{"type":"Point","coordinates":[-86.133642,40.486765]},"properties":{"name":"Kokomo","pop":61121,"rank":4}},{"type":"Feature","geometry":{"type":"Point","coordinates":[-87.330003,41.580393]},"properties":{"name":"Gary","pop":591180,"rank":2}},{"type":"Feature","geometry":{"type":"Point","coordinates":[-85.129982,41.080398]},"properties":{"name":"Fort Wayne","pop":299871,"rank":3}},{"type":"Feature","geometry":{"type":"Point","coordinates":[-84.508599,39.084008]},"properties":{"name":"Covington","pop":585489,"rank":2}},{"type":"Feature","geometry":{"type":"Point","coordinates":[-86.443649,36.990699]},"properties":{"name":"Bowling Green","pop":71140,"rank":4}},{"type":"Feature","geometry":{"type":"Point","coordinates":[-88.600003,37.083717]},"properties":{"name":"Paducah","pop":41317,"rank":4}},{"type":"Feature","geometry":{"type":"Point","coordinates":[-87.113324,37.774579]},"properties":{"name":"Owensboro","pop":67825,"rank":4}},{"type":"Feature","geometry":{"type":"Point","coordinates":[-77.430556,34.754324]},"properties":{"name":"Jacksonville","pop":77288,"rank":4}},{"type":"Feature","geometry":{"type":"Point","coordinates":[-77.993054,35.385139]},"properties":{"name":"Goldsboro","pop":47602,"rank":4}},{"type":"Feature","geometry":{"type":"Point","coordinates":[-77.366684,35.612877]},"properties":{"name":"Greenville","pop":92565,"rank":4}},{"type":"Feature","geometry":{"type":"Point","coordinates":[-78.886999,35.051111]},"properties":{"name":"Fayetteville","pop":243306,"rank":3}},{"type":"Feature","geometry":{"type":"Point","coordinates":[-81.341402,35.733489]},"properties":{"name":"Hickory","pop":89462,"rank":4}},{"type":"Feature","geometry":{"type":"Point","coordinates":[-82.554145,35.601198]},"properties":{"name":"Asheville","pop":142755,"rank":3}},{"type":"Feature","geometry":{"type":"Point","coordinates":[-80.259995,36.10543]},"properties":{"name":"Winston-Salem","pop":281683,"rank":3}},{"type":"Feature","geometry":{"type":"Point","coordinates":[-75.704718,36.077318]},"properties":{"name":"Kitty Hawk","pop":3413,"rank":4}},{"type":"Feature","geometry":{"type":"Point","coordinates":[-81.519996,41.070399]},"properties":{"name":"Akron","pop":703200,"rank":2}},{"type":"Feature","geometry":{"type":"Point","coordinates":[-84.105265,40.742874]},"properties":{"name":"Lima","pop":68364,"rank":4}},{"type":"Feature","geometry":{"type":"Point","coordinates":[-84.269725,36.010656]},"properties":{"name":"Oak Ridge","pop":33556,"rank":4}},{"type":"Feature","geometry":{"type":"Point","coordinates":[-86.390267,35.845963]},"properties":{"name":"Murfreesboro","pop":115774,"rank":3}},{"type":"Feature","geometry":{"type":"Point","coordinates":[-87.359433,36.530082]},"properties":{"name":"Clarksville","pop":132536,"rank":3}},{"type":"Feature","geometry":{"type":"Point","coordinates":[-88.813892,35.614866]},"properties":{"name":"Jackson","pop":63196,"rank":4}},{"type":"Feature","geometry":{"type":"Point","coordinates":[-77.055205,38.804338]},"properties":{"name":"Alexandria","pop":127273,"rank":3}},{"type":"Feature","geometry":{"type":"Point","coordinates":[-77.460786,38.303513]},"properties":{"name":"Fredericksburg","pop":133134,"rank":3}},{"type":"Feature","geometry":{"type":"Point","coordinates":[-79.941617,37.271199]},"properties":{"name":"Roanoke","pop":198171,"rank":3}},{"type":"Feature","geometry":{"type":"Point","coordinates":[-79.395319,36.586254]},"properties":{"name":"Danville","pop":45894,"rank":4}},{"type":"Feature","geometry":{"type":"Point","coordinates":[-78.166635,39.178731]},"properties":{"name":"Winchester","pop":53941,"rank":4}},{"type":"Feature","geometry":{"type":"Point","coordinates":[-82.176002,36.611524]},"properties":{"name":"Bristol","pop":37443,"rank":4}},{"type":"Feature","geometry":{"type":"Point","coordinates":[-92.103898,46.721243]},"properties":{"name":"Superior","pop":27580,"rank":4}},{"type":"Feature","geometry":{"type":"Point","coordinates":[-88.183336,43.425707]},"properties":{"name":"West Bend","pop":34530,"rank":4}},{"type":"Feature","geometry":{"type":"Point","coordinates":[-88.446912,43.773438]},"properties":{"name":"Fond du Lac","pop":54299,"rank":4}},{"type":"Feature","geometry":{"type":"Point","coordinates":[-88.542513,44.025102]},"properties":{"name":"Oshkosh","pop":72698,"rank":4}},{"type":"Feature","geometry":{"type":"Point","coordinates":[-89.412072,45.639913]},"properties":{"name":"Rhinelander","pop":11483,"rank":4}},{"type":"Feature","geometry":{"type":"Point","coordinates":[-87.811834,42.727714]},"properties":{"name":"Racine","pop":131654,"rank":3}},{"type":"Feature","geometry":{"type":"Point","coordinates":[-87.630476,45.100385]},"properties":{"name":"Marinette","pop":27169,"rank":4}},{"type":"Feature","geometry":{"type":"Point","coordinates":[-80.721078,40.06431]},"properties":{"name":"Wheeling","pop":52492,"rank":4}},{"type":"Feature","geometry":{"type":"Point","coordinates":[-79.95606,39.629815]},"properties":{"name":"Morgantown","pop":58808,"rank":4}},{"type":"Feature","geometry":{"type":"Point","coordinates":[-82.445288,38.419579]},"properties":{"name":"Huntington","pop":85396,"rank":4}},{"type":"Feature","geometry":{"type":"Point","coordinates":[-81.183014,37.780186]},"properties":{"name":"Beckley","pop":37836,"rank":4}},{"type":"Feature","geometry":{"type":"Point","coordinates":[-75.546898,39.746268]},"properties":{"name":"Wilmington","pop":161560,"rank":3}},{"type":"Feature","geometry":{"type":"Point","coordinates":[-78.762774,39.653173]},"properties":{"name":"Cumberland","pop":21316,"rank":4}},{"type":"Feature","geometry":{"type":"Point","coordinates":[-74.423323,39.364637]},"properties":{"name":"Atlantic City","pop":76573,"rank":4}},{"type":"Feature","geometry":{"type":"Point","coordinates":[-74.170005,40.700421]},"properties":{"name":"Newark","pop":280123,"rank":3}},{"type":"Feature","geometry":{"type":"Point","coordinates":[-73.939968,42.814582]},"properties":{"name":"Schenectady","pop":149255,"rank":3}},{"type":"Feature","geometry":{"type":"Point","coordinates":[-75.918322,42.099018]},"properties":{"name":"Binghamton","pop":139895,"rank":3}},{"type":"Feature","geometry":{"type":"Point","coordinates":[-75.233067,43.101179]},"properties":{"name":"Utica","pop":105150,"rank":3}},{"type":"Feature","geometry":{"type":"Point","coordinates":[-75.911062,43.975157]},"properties":{"name":"Watertown","pop":33821,"rank":4}},{"type":"Feature","geometry":{"type":"Point","coordinates":[-79.036943,43.094823]},"properties":{"name":"Niagara Falls","pop":153134,"rank":3}},{"type":"Feature","geometry":{"type":"Point","coordinates":[-79.235536,42.097364]},"properties":{"name":"Jamestown","pop":45756,"rank":4}},{"type":"Feature","geometry":{"type":"Point","coordinates":[-76.808036,42.09013]},"properties":{"name":"Elmira","pop":62376,"rank":4}},{"type":"Feature","geometry":{"type":"Point","coordinates":[-76.72804,39.962921]},"properties":{"name":"York","pop":218010,"rank":3}},{"type":"Feature","geometry":{"type":"Point","coordinates":[-78.922222,40.327085]},"properties":{"name":"Johnstown","pop":69286,"rank":4}},{"type":"Feature","geometry":{"type":"Point","coordinates":[-75.662679,41.409293]},"properties":{"name":"Scranton","pop":156196,"rank":3}},{"type":"Feature","geometry":{"type":"Point","coordinates":[-77.860245,40.793723]},"properties":{"name":"State College","pop":87926,"rank":4}},{"type":"Feature","geometry":{"type":"Point","coordinates":[-80.084993,42.129921]},"properties":{"name":"Erie","pop":178182,"rank":3}},{"type":"Feature","geometry":{"type":"Point","coordinates":[-75.877937,41.249044]},"properties":{"name":"Wilkes-Barre","pop":158913,"rank":3}},{"type":"Feature","geometry":{"type":"Point","coordinates":[-68.204375,44.387896]},"properties":{"name":"Bar Harbor","pop":6090,"rank":4}},{"type":"Feature","geometry":{"type":"Point","coordinates":[-70.21526,44.100705]},"properties":{"name":"Lewiston","pop":57688,"rank":4}},{"type":"Feature","geometry":{"type":"Point","coordinates":[-68.012464,46.675577]},"properties":{"name":"Presque Isle","pop":9466,"rank":4}},{"type":"Feature","geometry":{"type":"Point","coordinates":[-83.719991,42.300375]},"properties":{"name":"Ann Arbor","pop":265976,"rank":3}},{"type":"Feature","geometry":{"type":"Point","coordinates":[-85.58719,42.292159]},"properties":{"name":"Kalamazoo","pop":183381,"rank":3}},{"type":"Feature","geometry":{"type":"Point","coordinates":[-86.248364,43.234582]},"properties":{"name":"Muskegon","pop":101177,"rank":3}},{"type":"Feature","geometry":{"type":"Point","coordinates":[-83.687538,43.012864]},"properties":{"name":"Flint","pop":295212,"rank":3}},{"type":"Feature","geometry":{"type":"Point","coordinates":[-85.669949,42.96372]},"properties":{"name":"Grand Rapids","pop":535829,"rank":2}},{"type":"Feature","geometry":{"type":"Point","coordinates":[-83.290224,42.651853]},"properties":{"name":"Pontiac","pop":67994,"rank":4}},{"type":"Feature","geometry":{"type":"Point","coordinates":[-85.413608,44.251212]},"properties":{"name":"Cadillac","pop":14097,"rank":4}},{"type":"Feature","geometry":{"type":"Point","coordinates":[-85.622174,44.768442]},"properties":{"name":"Traverse City","pop":43189,"rank":4}},{"type":"Feature","geometry":{"type":"Point","coordinates":[-84.955187,45.373754]},"properties":{"name":"Petoskey","pop":12667,"rank":4}},{"type":"Feature","geometry":{"type":"Point","coordinates":[-87.06436,45.745695]},"properties":{"name":"Escanaba","pop":17318,"rank":4}},{"type":"Feature","geometry":{"type":"Point","coordinates":[-87.406588,46.546731]},"properties":{"name":"Marquette","pop":26591,"rank":4}},{"type":"Feature","geometry":{"type":"Point","coordinates":[-88.580805,47.12729]},"properties":{"name":"Hancock","pop":16355,"rank":4}},{"type":"Feature","geometry":{"type":"Point","coordinates":[-112.37276255,23.46166772]},"properties":{"name":"Wrangell","pop":2070,"rank":4}},{"type":"Feature","geometry":{"type":"Point","coordinates":[-122.14584780999999,26.299522749999998]},"properties":{"name":"Shishmaref","pop":254,"rank":4}},{"type":"Feature","geometry":{"type":"Point","coordinates":[-113.26219893,23.93846745]},"properties":{"name":"Hoonah","pop":361,"rank":4}},{"type":"Feature","geometry":{"type":"Point","coordinates":[-124.50314181,22.221982099999998]},"properties":{"name":"Atka","pop":61,"rank":4}},{"type":"Feature","geometry":{"type":"Point","coordinates":[-122.95662951999999,22.43714586]},"properties":{"name":"Nikolski","pop":18,"rank":4}},{"type":"Feature","geometry":{"type":"Point","coordinates":[-118.77695783,23.78096294]},"properties":{"name":"Karluk","pop":96,"rank":4}},{"type":"Feature","geometry":{"type":"Point","coordinates":[-121.37535667,22.99185119]},"properties":{"name":"False Pass","pop":35,"rank":4}},{"type":"Feature","geometry":{"type":"Point","coordinates":[-121.68591187,26.72713268]},"properties":{"name":"Kivalina","pop":374,"rank":4}},{"type":"Feature","geometry":{"type":"Point","coordinates":[-118.90518713,24.40390034]},"properties":{"name":"Newhalen","pop":160,"rank":4}},{"type":"Feature","geometry":{"type":"Point","coordinates":[-119.68004683000001,23.7787224]},"properties":{"name":"Pilot Point","pop":68,"rank":4}},{"type":"Feature","geometry":{"type":"Point","coordinates":[-119.92164612,23.41074459]},"properties":{"name":"Chignik","pop":118,"rank":4}},{"type":"Feature","geometry":{"type":"Point","coordinates":[-119.41679962,24.10472387]},"properties":{"name":"King Salmon","pop":292,"rank":4}},{"type":"Feature","geometry":{"type":"Point","coordinates":[-120.94057794,24.41227757]},"properties":{"name":"Quinhagak","pop":250,"rank":4}},{"type":"Feature","geometry":{"type":"Point","coordinates":[-120.24643394,24.94282532]},"properties":{"name":"Aniak","pop":501,"rank":4}},{"type":"Feature","geometry":{"type":"Point","coordinates":[-121.41545207,25.36503052]},"properties":{"name":"Kotlit","pop":1002,"rank":4}},{"type":"Feature","geometry":{"type":"Point","coordinates":[-120.61353507999999,25.608293540000002]},"properties":{"name":"Unalakleet","pop":741,"rank":4}},{"type":"Feature","geometry":{"type":"Point","coordinates":[-120.72066688000001,25.91767801]},"properties":{"name":"Koyuk","pop":254,"rank":4}},{"type":"Feature","geometry":{"type":"Point","coordinates":[-119.10777765,25.34247635]},"properties":{"name":"McGrath","pop":138,"rank":4}},{"type":"Feature","geometry":{"type":"Point","coordinates":[-118.71894652,26.23926336]},"properties":{"name":"Hughes","pop":78,"rank":4}},{"type":"Feature","geometry":{"type":"Point","coordinates":[-119.76190860999999,26.54008065]},"properties":{"name":"Ambler","pop":258,"rank":4}},{"type":"Feature","geometry":{"type":"Point","coordinates":[-122.73037587,26.11178371]},"properties":{"name":"Wales","pop":99,"rank":4}},{"type":"Feature","geometry":{"type":"Point","coordinates":[-121.13801342,26.48562097]},"properties":{"name":"Kotzebue","pop":3194,"rank":4}},{"type":"Feature","geometry":{"type":"Point","coordinates":[-117.32243818,24.94370199]},"properties":{"name":"Wasilla","pop":8521,"rank":4}},{"type":"Feature","geometry":{"type":"Point","coordinates":[-115.7625508,26.1745081]},"properties":{"name":"Circle","pop":100,"rank":4}},{"type":"Feature","geometry":{"type":"Point","coordinates":[-117.17008871,25.56759842]},"properties":{"name":"Denali Park","pop":1826,"rank":4}},{"type":"Feature","geometry":{"type":"Point","coordinates":[-114.50589322,24.35371903]},"properties":{"name":"Yakutat","pop":109,"rank":4}},{"type":"Feature","geometry":{"type":"Point","coordinates":[-117.9340012,24.381450859999998]},"properties":{"name":"Homer","pop":6560,"rank":4}},{"type":"Feature","geometry":{"type":"Point","coordinates":[-115.55545687,25.46685387]},"properties":{"name":"Tanacross","pop":136,"rank":4}},{"type":"Feature","geometry":{"type":"Point","coordinates":[-117.51617181,26.63403659]},"properties":{"name":"Wiseman","pop":14,"rank":4}},{"type":"Feature","geometry":{"type":"Point","coordinates":[-107.29016879999999,23.810512]},"properties":{"name":"Kailua-Kona","pop":9870,"rank":4}},{"type":"Feature","geometry":{"type":"Point","coordinates":[-112.533839,46.003896]},"properties":{"name":"Butte","pop":34190,"rank":4}},{"type":"Feature","geometry":{"type":"Point","coordinates":[-97.032486,47.925277]},"properties":{"name":"Grand Forks","pop":58566,"rank":4}},{"type":"Feature","geometry":{"type":"Point","coordinates":[-112.444723,42.871348]},"properties":{"name":"Pocatello","pop":63998,"rank":4}},{"type":"Feature","geometry":{"type":"Point","coordinates":[-122.446824,47.240568]},"properties":{"name":"Tacoma","pop":719868,"rank":2}},{"type":"Feature","geometry":{"type":"Point","coordinates":[-114.623608,32.685277]},"properties":{"name":"Yuma","pop":92489,"rank":4}},{"type":"Feature","geometry":{"type":"Point","coordinates":[-112.447772,34.590019]},"properties":{"name":"Prescott","pop":55038,"rank":4}},{"type":"Feature","geometry":{"type":"Point","coordinates":[-118.200337,33.777018]},"properties":{"name":"Long Beach","pop":2036134,"rank":1}},{"type":"Feature","geometry":{"type":"Point","coordinates":[-108.55,39.093853]},"properties":{"name":"Grand Junction","pop":104214,"rank":3}},{"type":"Feature","geometry":{"type":"Point","coordinates":[-114.887675,39.247022]},"properties":{"name":"Ely","pop":4216,"rank":4}},{"type":"Feature","geometry":{"type":"Point","coordinates":[-119.766395,39.163849]},"properties":{"name":"Carson City","pop":57341,"rank":4}},{"type":"Feature","geometry":{"type":"Point","coordinates":[-104.2283,32.420565]},"properties":{"name":"Carlsbad","pop":25302,"rank":4}},{"type":"Feature","geometry":{"type":"Point","coordinates":[-105.959719,32.899476]},"properties":{"name":"Alamogordo","pop":36058,"rank":4}},{"type":"Feature","geometry":{"type":"Point","coordinates":[-122.874423,42.326627]},"properties":{"name":"Medford","pop":108525,"rank":3}},{"type":"Feature","geometry":{"type":"Point","coordinates":[-121.780536,42.225005]},"properties":{"name":"Klamath Falls","pop":42978,"rank":4}},{"type":"Feature","geometry":{"type":"Point","coordinates":[-113.583336,37.104155]},"properties":{"name":"St. George","pop":98638,"rank":4}},{"type":"Feature","geometry":{"type":"Point","coordinates":[-111.63777,40.248899]},"properties":{"name":"Provo","pop":356712,"rank":2}},{"type":"Feature","geometry":{"type":"Point","coordinates":[-105.590568,41.311366]},"properties":{"name":"Laramie","pop":26934,"rank":4}},{"type":"Feature","geometry":{"type":"Point","coordinates":[-92.331093,34.736083]},"properties":{"name":"Little Rock","pop":270893,"rank":3}},{"type":"Feature","geometry":{"type":"Point","coordinates":[-97.327657,37.676338]},"properties":{"name":"Wichita","pop":401843,"rank":2}},{"type":"Feature","geometry":{"type":"Point","coordinates":[-92.173325,38.576623]},"properties":{"name":"Jefferson City","pop":55139,"rank":4}},{"type":"Feature","geometry":{"type":"Point","coordinates":[-103.230557,44.080551]},"properties":{"name":"Rapid City","pop":73632,"rank":4}},{"type":"Feature","geometry":{"type":"Point","coordinates":[-92.019949,30.199977]},"properties":{"name":"Lafayette","pop":158214,"rank":3}},{"type":"Feature","geometry":{"type":"Point","coordinates":[-94.79748,29.301143]},"properties":{"name":"Galveston","pop":68612,"rank":4}},{"type":"Feature","geometry":{"type":"Point","coordinates":[-95.356877,28.959484]},"properties":{"name":"Freeport","pop":74892,"rank":4}},{"type":"Feature","geometry":{"type":"Point","coordinates":[-97.00334,28.804998]},"properties":{"name":"Victoria","pop":64209,"rank":4}},{"type":"Feature","geometry":{"type":"Point","coordinates":[-102.367225,31.845561]},"properties":{"name":"Odessa","pop":106054,"rank":3}},{"type":"Feature","geometry":{"type":"Point","coordinates":[-98.493069,33.913626]},"properties":{"name":"Wichita Falls","pop":101212,"rank":3}},{"type":"Feature","geometry":{"type":"Point","coordinates":[-97.146381,31.549171]},"properties":{"name":"Waco","pop":167347,"rank":3}},{"type":"Feature","geometry":{"type":"Point","coordinates":[-101.879968,33.580003]},"properties":{"name":"Lubbock","pop":213300,"rank":3}},{"type":"Feature","geometry":{"type":"Point","coordinates":[-72.681913,41.771966]},"properties":{"name":"Hartford","pop":913000,"rank":2}},{"type":"Feature","geometry":{"type":"Point","coordinates":[-71.416926,41.823048]},"properties":{"name":"Providence","pop":1277000,"rank":1}},{"type":"Feature","geometry":{"type":"Point","coordinates":[-86.824995,33.530006]},"properties":{"name":"Birmingham","pop":1128047,"rank":1}},{"type":"Feature","geometry":{"type":"Point","coordinates":[-88.049985,30.680025]},"properties":{"name":"Mobile","pop":253466,"rank":3}},{"type":"Feature","geometry":{"type":"Point","coordinates":[-87.216935,30.421126]},"properties":{"name":"Pensacola","pop":234384,"rank":3}},{"type":"Feature","geometry":{"type":"Point","coordinates":[-82.679383,27.770539]},"properties":{"name":"St. Petersburg","pop":800313,"rank":2}},{"type":"Feature","geometry":{"type":"Point","coordinates":[-88.885309,30.395805]},"properties":{"name":"Biloxi","pop":50644,"rank":4}},{"type":"Feature","geometry":{"type":"Point","coordinates":[-89.637126,39.788247]},"properties":{"name":"Springfield","pop":134715,"rank":3}},{"type":"Feature","geometry":{"type":"Point","coordinates":[-84.873357,38.200806]},"properties":{"name":"Frankfort","pop":36688,"rank":4}},{"type":"Feature","geometry":{"type":"Point","coordinates":[-79.800023,36.070006]},"properties":{"name":"Greensboro","pop":388887,"rank":2}},{"type":"Feature","geometry":{"type":"Point","coordinates":[-84.201933,39.752322]},"properties":{"name":"Dayton","pop":773000,"rank":2}},{"type":"Feature","geometry":{"type":"Point","coordinates":[-75.980265,36.85516]},"properties":{"name":"Virginia Beach","pop":1491000,"rank":1}},{"type":"Feature","geometry":{"type":"Point","coordinates":[-89.401117,43.073016]},"properties":{"name":"Madison","pop":327447,"rank":2}},{"type":"Feature","geometry":{"type":"Point","coordinates":[-88.000014,44.529981]},"properties":{"name":"Green Bay","pop":198611,"rank":3}},{"type":"Feature","geometry":{"type":"Point","coordinates":[-74.743355,40.216963]},"properties":{"name":"Trenton","pop":366513,"rank":2}},{"type":"Feature","geometry":{"type":"Point","coordinates":[-84.546736,42.733527]},"properties":{"name":"Lansing","pop":279952,"rank":3}},{"type":"Feature","geometry":{"type":"Point","coordinates":[-123.78701291,25.5811159]},"properties":{"name":"Gambell","pop":681,"rank":4}},{"type":"Feature","geometry":{"type":"Point","coordinates":[-117.22768068,24.94891706]},"properties":{"name":"Palmer","pop":13111,"rank":4}},{"type":"Feature","geometry":{"type":"Point","coordinates":[-117.33129507000001,24.52158669]},"properties":{"name":"Seward","pop":2900,"rank":4}},{"type":"Feature","geometry":{"type":"Point","coordinates":[-92.106378,46.783332]},"properties":{"name":"Duluth","pop":84800,"rank":4}},{"type":"Feature","geometry":{"type":"Point","coordinates":[-94.880188,47.473574]},"properties":{"name":"Bemidji","pop":14796,"rank":4}},{"type":"Feature","geometry":{"type":"Point","coordinates":[-109.677683,48.54524]},"properties":{"name":"Havre","pop":11154,"rank":4}},{"type":"Feature","geometry":{"type":"Point","coordinates":[-114.315979,48.197767]},"properties":{"name":"Kalispell","pop":32062,"rank":4}},{"type":"Feature","geometry":{"type":"Point","coordinates":[-112.033301,43.466687]},"properties":{"name":"Idaho Falls","pop":79399,"rank":4}},{"type":"Feature","geometry":{"type":"Point","coordinates":[-117.016589,46.41661]},"properties":{"name":"Lewiston","pop":49289,"rank":4}},{"type":"Feature","geometry":{"type":"Point","coordinates":[-120.504696,46.602232]},"properties":{"name":"Yakima","pop":99287,"rank":4}},{"type":"Feature","geometry":{"type":"Point","coordinates":[-120.309024,47.423629]},"properties":{"name":"Wenatchee","pop":62625,"rank":4}},{"type":"Feature","geometry":{"type":"Point","coordinates":[-109.548363,31.35864]},"properties":{"name":"Douglas","pop":30185,"rank":4}},{"type":"Feature","geometry":{"type":"Point","coordinates":[-119.019981,35.369971]},"properties":{"name":"Bakersfield","pop":443129,"rank":2}},{"type":"Feature","geometry":{"type":"Point","coordinates":[-122.278038,37.804725]},"properties":{"name":"Oakland","pop":1510271,"rank":1}},{"type":"Feature","geometry":{"type":"Point","coordinates":[-118.135823,34.698049]},"properties":{"name":"Lancaster","pop":225799,"rank":3}},{"type":"Feature","geometry":{"type":"Point","coordinates":[-121.836398,39.72862]},"properties":{"name":"Chico","pop":95888,"rank":4}},{"type":"Feature","geometry":{"type":"Point","coordinates":[-121.893578,36.600258]},"properties":{"name":"Monterey","pop":124288,"rank":3}},{"type":"Feature","geometry":{"type":"Point","coordinates":[-121.641655,36.682217]},"properties":{"name":"Salinas","pop":156784,"rank":3}},{"type":"Feature","geometry":{"type":"Point","coordinates":[-106.297708,35.891103]},"properties":{"name":"Los Alamos","pop":12233,"rank":4}},{"type":"Feature","geometry":{"type":"Point","coordinates":[-123.100016,44.05001]},"properties":{"name":"Eugene","pop":245158,"rank":3}},{"type":"Feature","geometry":{"type":"Point","coordinates":[-124.216589,43.366615]},"properties":{"name":"Coos Bay","pop":31976,"rank":4}},{"type":"Feature","geometry":{"type":"Point","coordinates":[-121.308603,44.053929]},"properties":{"name":"Bend","pop":75441,"rank":4}},{"type":"Feature","geometry":{"type":"Point","coordinates":[-109.057101,44.523211]},"properties":{"name":"Cody","pop":9161,"rank":4}},{"type":"Feature","geometry":{"type":"Point","coordinates":[-91.660023,41.969982]},"properties":{"name":"Cedar Rapids","pop":170621,"rank":3}},{"type":"Feature","geometry":{"type":"Point","coordinates":[-93.319999,37.180016]},"properties":{"name":"Springfield","pop":210939,"rank":3}},{"type":"Feature","geometry":{"type":"Point","coordinates":[-96.680001,40.819975]},"properties":{"name":"Lincoln","pop":246220,"rank":3}},{"type":"Feature","geometry":{"type":"Point","coordinates":[-92.445014,31.311098]},"properties":{"name":"Alexandria","pop":76565,"rank":4}},{"type":"Feature","geometry":{"type":"Point","coordinates":[-99.732786,32.448625]},"properties":{"name":"Abilene","pop":114247,"rank":3}},{"type":"Feature","geometry":{"type":"Point","coordinates":[-97.500002,25.91998]},"properties":{"name":"Brownsville","pop":181399,"rank":3}},{"type":"Feature","geometry":{"type":"Point","coordinates":[-95.300783,32.351086]},"properties":{"name":"Tyler","pop":112245,"rank":3}},{"type":"Feature","geometry":{"type":"Point","coordinates":[-71.538047,43.208072]},"properties":{"name":"Concord","pop":44606,"rank":4}},{"type":"Feature","geometry":{"type":"Point","coordinates":[-86.609995,34.71996]},"properties":{"name":"Huntsville","pop":212733,"rank":3}},{"type":"Feature","geometry":{"type":"Point","coordinates":[-81.782745,24.555231]},"properties":{"name":"Key West","pop":29377,"rank":4}},{"type":"Feature","geometry":{"type":"Point","coordinates":[-80.123621,26.74502]},"properties":{"name":"West Palm Beach","pop":1250000,"rank":1}},{"type":"Feature","geometry":{"type":"Point","coordinates":[-82.530787,27.336121]},"properties":{"name":"Sarasota","pop":589959,"rank":2}},{"type":"Feature","geometry":{"type":"Point","coordinates":[-81.023075,29.210554]},"properties":{"name":"Daytona Beach","pop":216890,"rank":3}},{"type":"Feature","geometry":{"type":"Point","coordinates":[-82.325037,29.65138]},"properties":{"name":"Gainesville","pop":191097,"rank":3}},{"type":"Feature","geometry":{"type":"Point","coordinates":[-81.860492,26.640298]},"properties":{"name":"Ft. Myers","pop":188606,"rank":3}},{"type":"Feature","geometry":{"type":"Point","coordinates":[-81.491652,31.149687]},"properties":{"name":"Brunswick","pop":47085,"rank":4}},{"type":"Feature","geometry":{"type":"Point","coordinates":[-81.984981,33.460812]},"properties":{"name":"Augusta","pop":262332,"rank":3}},{"type":"Feature","geometry":{"type":"Point","coordinates":[-90.877745,32.352481]},"properties":{"name":"Vicksburg","pop":25701,"rank":4}},{"type":"Feature","geometry":{"type":"Point","coordinates":[-78.886978,33.688911]},"properties":{"name":"Myrtle Beach","pop":49357,"rank":4}},{"type":"Feature","geometry":{"type":"Point","coordinates":[-79.992105,32.792377]},"properties":{"name":"Charleston","pop":411940,"rank":2}},{"type":"Feature","geometry":{"type":"Point","coordinates":[-89.57868,40.68944]},"properties":{"name":"Peoria","pop":172308,"rank":3}},{"type":"Feature","geometry":{"type":"Point","coordinates":[-87.555829,37.974696]},"properties":{"name":"Evansville","pop":174102,"rank":3}},{"type":"Feature","geometry":{"type":"Point","coordinates":[-85.75065,38.226963]},"properties":{"name":"Louisville","pop":948000,"rank":2}},{"type":"Feature","geometry":{"type":"Point","coordinates":[-84.500021,38.050015]},"properties":{"name":"Lexington","pop":264578,"rank":3}},{"type":"Feature","geometry":{"type":"Point","coordinates":[-80.831984,35.20694]},"properties":{"name":"Charlotte","pop":995000,"rank":2}},{"type":"Feature","geometry":{"type":"Point","coordinates":[-80.649739,41.099699]},"properties":{"name":"Youngstown","pop":311990,"rank":2}},{"type":"Feature","geometry":{"type":"Point","coordinates":[-81.378635,40.798865]},"properties":{"name":"Canton","pop":258660,"rank":3}},{"type":"Feature","geometry":{"type":"Point","coordinates":[-83.552976,41.639788]},"properties":{"name":"Toledo","pop":469924,"rank":2}},{"type":"Feature","geometry":{"type":"Point","coordinates":[-82.991956,39.98192]},"properties":{"name":"Columbus","pop":1270000,"rank":1}},{"type":"Feature","geometry":{"type":"Point","coordinates":[-85.250001,35.06999]},"properties":{"name":"Chattanooga","pop":257589,"rank":3}},{"type":"Feature","geometry":{"type":"Point","coordinates":[-78.476926,38.029189]},"properties":{"name":"Charlottesville","pop":87925,"rank":4}},{"type":"Feature","geometry":{"type":"Point","coordinates":[-79.142467,37.413619]},"properties":{"name":"Lynchburg","pop":103893,"rank":3}},{"type":"Feature","geometry":{"type":"Point","coordinates":[-89.629992,44.959154]},"properties":{"name":"Wausau","pop":75422,"rank":4}},{"type":"Feature","geometry":{"type":"Point","coordinates":[-73.757553,42.653744]},"properties":{"name":"Albany","pop":870716,"rank":2}},{"type":"Feature","geometry":{"type":"Point","coordinates":[-76.496943,42.440573]},"properties":{"name":"Ithaca","pop":59930,"rank":4}},{"type":"Feature","geometry":{"type":"Point","coordinates":[-76.884749,40.2736]},"properties":{"name":"Harrisburg","pop":528892,"rank":2}},{"type":"Feature","geometry":{"type":"Point","coordinates":[-68.778345,44.801153]},"properties":{"name":"Bangor","pop":50213,"rank":4}},{"type":"Feature","geometry":{"type":"Point","coordinates":[-70.245527,43.672162]},"properties":{"name":"Portland","pop":135866,"rank":3}},{"type":"Feature","geometry":{"type":"Point","coordinates":[-83.950829,43.41948]},"properties":{"name":"Saginaw","pop":121379,"rank":3}},{"type":"Feature","geometry":{"type":"Point","coordinates":[-112.16755710000001,23.13830351]},"properties":{"name":"Ketchikan","pop":9070,"rank":4}},{"type":"Feature","geometry":{"type":"Point","coordinates":[-122.27916487,22.706889359999998]},"properties":{"name":"Unalaska","pop":3571,"rank":4}},{"type":"Feature","geometry":{"type":"Point","coordinates":[-120.49471367,24.21540469]},"properties":{"name":"Togiak","pop":236,"rank":4}},{"type":"Feature","geometry":{"type":"Point","coordinates":[-119.60563282999999,24.99568884]},"properties":{"name":"Red Devil","pop":25,"rank":4}},{"type":"Feature","geometry":{"type":"Point","coordinates":[-122.15300385,24.92901552]},"properties":{"name":"Hooper Bay","pop":1079,"rank":4}},{"type":"Feature","geometry":{"type":"Point","coordinates":[-120.39610816,27.569697809999997]},"properties":{"name":"Wainwright","pop":174,"rank":4}},{"type":"Feature","geometry":{"type":"Point","coordinates":[-119.49382855,25.85765555]},"properties":{"name":"Galena","pop":500,"rank":4}},{"type":"Feature","geometry":{"type":"Point","coordinates":[-115.62984477,27.41047824]},"properties":{"name":"Kaktovik","pop":101,"rank":4}},{"type":"Feature","geometry":{"type":"Point","coordinates":[-113.22602984,24.3279128]},"properties":{"name":"Skagway","pop":955,"rank":4}},{"type":"Feature","geometry":{"type":"Point","coordinates":[-116.25467384,24.64240504]},"properties":{"name":"Cordova","pop":2257,"rank":4}},{"type":"Feature","geometry":{"type":"Point","coordinates":[-117.84982377,24.64576208]},"properties":{"name":"Kenai","pop":7610,"rank":4}},{"type":"Feature","geometry":{"type":"Point","coordinates":[-116.11439591,26.388757780000002]},"properties":{"name":"Fort Yukon","pop":833,"rank":4}},{"type":"Feature","geometry":{"type":"Point","coordinates":[-122.02639,36.971946]},"properties":{"name":"Santa Cruz","pop":148444,"rank":3}},{"type":"Feature","geometry":{"type":"Point","coordinates":[-117.30198,34.12233]},"properties":{"name":"San Bernardino","pop":1745000,"rank":1}},{"type":"Feature","geometry":{"type":"Point","coordinates":[-73.201907,41.181925]},"properties":{"name":"Bridgeport","pop":1018000,"rank":1}},{"type":"Feature","geometry":{"type":"Point","coordinates":[-77.621896,43.172371]},"properties":{"name":"Rochester","pop":755000,"rank":2}},{"type":"Feature","geometry":{"type":"Point","coordinates":[-93.410846,48.601128]},"properties":{"name":"International Falls","pop":15240,"rank":4}},{"type":"Feature","geometry":{"type":"Point","coordinates":[-93.084975,44.943987]},"properties":{"name":"St.  Paul","pop":734854,"rank":2}},{"type":"Feature","geometry":{"type":"Point","coordinates":[-108.54,45.788302]},"properties":{"name":"Billings","pop":104552,"rank":3}},{"type":"Feature","geometry":{"type":"Point","coordinates":[-111.299987,47.50029]},"properties":{"name":"Great Falls","pop":66558,"rank":4}},{"type":"Feature","geometry":{"type":"Point","coordinates":[-113.993053,46.872241]},"properties":{"name":"Missoula","pop":72856,"rank":4}},{"type":"Feature","geometry":{"type":"Point","coordinates":[-101.295817,48.232494]},"properties":{"name":"Minot","pop":39439,"rank":4}},{"type":"Feature","geometry":{"type":"Point","coordinates":[-96.789426,46.877228]},"properties":{"name":"Fargo","pop":162842,"rank":3}},{"type":"Feature","geometry":{"type":"Point","coordinates":[-106.565232,23.864514399999997]},"properties":{"name":"Hilo","pop":52391,"rank":4}},{"type":"Feature","geometry":{"type":"Point","coordinates":[-122.899434,47.038045]},"properties":{"name":"Olympia","pop":156984,"rank":3}},{"type":"Feature","geometry":{"type":"Point","coordinates":[-117.419949,47.669996]},"properties":{"name":"Spokane","pop":347705,"rank":2}},{"type":"Feature","geometry":{"type":"Point","coordinates":[-122.639993,45.630301]},"properties":{"name":"Vancouver","pop":525802,"rank":2}},{"type":"Feature","geometry":{"type":"Point","coordinates":[-111.650508,35.198096]},"properties":{"name":"Flagstaff","pop":63993,"rank":4}},{"type":"Feature","geometry":{"type":"Point","coordinates":[-110.891932,32.206943]},"properties":{"name":"Tucson","pop":823000,"rank":2}},{"type":"Feature","geometry":{"type":"Point","coordinates":[-119.716618,34.410799]},"properties":{"name":"Santa Barbara","pop":181632,"rank":3}},{"type":"Feature","geometry":{"type":"Point","coordinates":[-119.772984,36.747717]},"properties":{"name":"Fresno","pop":616353,"rank":2}},{"type":"Feature","geometry":{"type":"Point","coordinates":[-124.150371,40.793039]},"properties":{"name":"Eureka","pop":42398,"rank":4}},{"type":"Feature","geometry":{"type":"Point","coordinates":[-104.791986,38.862963]},"properties":{"name":"Colorado Springs","pop":493654,"rank":2}},{"type":"Feature","geometry":{"type":"Point","coordinates":[-119.82001,39.529976]},"properties":{"name":"Reno","pop":328585,"rank":2}},{"type":"Feature","geometry":{"type":"Point","coordinates":[-115.761989,40.832506]},"properties":{"name":"Elko","pop":19252,"rank":4}},{"type":"Feature","geometry":{"type":"Point","coordinates":[-106.641331,35.104975]},"properties":{"name":"Albuquerque","pop":898642,"rank":2}},{"type":"Feature","geometry":{"type":"Point","coordinates":[-123.023897,44.92807]},"properties":{"name":"Salem","pop":229010,"rank":3}},{"type":"Feature","geometry":{"type":"Point","coordinates":[-106.323243,42.846872]},"properties":{"name":"Casper","pop":60791,"rank":4}},{"type":"Feature","geometry":{"type":"Point","coordinates":[-95.669985,39.050005]},"properties":{"name":"Topeka","pop":132091,"rank":3}},{"type":"Feature","geometry":{"type":"Point","coordinates":[-94.60604,39.109034]},"properties":{"name":"Kansas City","pop":1469000,"rank":1}},{"type":"Feature","geometry":{"type":"Point","coordinates":[-95.930021,36.120003]},"properties":{"name":"Tulsa","pop":946962,"rank":2}},{"type":"Feature","geometry":{"type":"Point","coordinates":[-96.729998,43.549989]},"properties":{"name":"Sioux Falls","pop":155724,"rank":3}},{"type":"Feature","geometry":{"type":"Point","coordinates":[-93.770023,32.500017]},"properties":{"name":"Shreveport","pop":248053,"rank":3}},{"type":"Feature","geometry":{"type":"Point","coordinates":[-91.140158,30.457946]},"properties":{"name":"Baton Rouge","pop":422072,"rank":2}},{"type":"Feature","geometry":{"type":"Point","coordinates":[-97.340038,32.739977]},"properties":{"name":"Ft.  Worth","pop":1440454,"rank":1}},{"type":"Feature","geometry":{"type":"Point","coordinates":[-97.401895,27.742814]},"properties":{"name":"Corpus Christi","pop":277454,"rank":3}},{"type":"Feature","geometry":{"type":"Point","coordinates":[-97.744724,30.268895]},"properties":{"name":"Austin","pop":1161000,"rank":1}},{"type":"Feature","geometry":{"type":"Point","coordinates":[-101.829997,35.22998]},"properties":{"name":"Amarillo","pop":181766,"rank":3}},{"type":"Feature","geometry":{"type":"Point","coordinates":[-106.511941,31.78193]},"properties":{"name":"El Paso","pop":753000,"rank":2}},{"type":"Feature","geometry":{"type":"Point","coordinates":[-99.507218,27.506136]},"properties":{"name":"Laredo","pop":434768,"rank":2}},{"type":"Feature","geometry":{"type":"Point","coordinates":[-73.212467,44.475798]},"properties":{"name":"Burlington","pop":93807,"rank":4}},{"type":"Feature","geometry":{"type":"Point","coordinates":[-86.279189,32.361602]},"properties":{"name":"Montgomery","pop":198325,"rank":3}},{"type":"Feature","geometry":{"type":"Point","coordinates":[-84.280034,30.449988]},"properties":{"name":"Tallahassee","pop":221222,"rank":3}},{"type":"Feature","geometry":{"type":"Point","coordinates":[-81.381976,28.511923]},"properties":{"name":"Orlando","pop":1350000,"rank":1}},{"type":"Feature","geometry":{"type":"Point","coordinates":[-81.671933,30.331967]},"properties":{"name":"Jacksonville","pop":988000,"rank":2}},{"type":"Feature","geometry":{"type":"Point","coordinates":[-81.109995,32.021106]},"properties":{"name":"Savannah","pop":180187,"rank":3}},{"type":"Feature","geometry":{"type":"Point","coordinates":[-81.031262,33.996861]},"properties":{"name":"Columbia","pop":398093,"rank":2}},{"type":"Feature","geometry":{"type":"Point","coordinates":[-86.171994,39.751934]},"properties":{"name":"Indianapolis","pop":1436000,"rank":1}},{"type":"Feature","geometry":{"type":"Point","coordinates":[-77.94502,34.225519]},"properties":{"name":"Wilmington","pop":161560,"rank":3}},{"type":"Feature","geometry":{"type":"Point","coordinates":[-83.92003,35.970012]},"properties":{"name":"Knoxville","pop":655400,"rank":2}},{"type":"Feature","geometry":{"type":"Point","coordinates":[-77.451932,37.551965]},"properties":{"name":"Richmond","pop":912000,"rank":2}},{"type":"Feature","geometry":{"type":"Point","coordinates":[-81.632728,38.349738]},"properties":{"name":"Charleston","pop":123799,"rank":3}},{"type":"Feature","geometry":{"type":"Point","coordinates":[-76.614582,39.281516]},"properties":{"name":"Baltimore","pop":2255000,"rank":1}},{"type":"Feature","geometry":{"type":"Point","coordinates":[-76.150014,43.049994]},"properties":{"name":"Syracuse","pop":662577,"rank":2}},{"type":"Feature","geometry":{"type":"Point","coordinates":[-69.779989,44.310563]},"properties":{"name":"Augusta","pop":24042,"rank":4}},{"type":"Feature","geometry":{"type":"Point","coordinates":[-84.345276,46.495261]},"properties":{"name":"Sault Ste. Marie","pop":83805,"rank":4}},{"type":"Feature","geometry":{"type":"Point","coordinates":[-113.22998921,23.63251542]},"properties":{"name":"Sitka","pop":8931,"rank":4}},{"type":"Feature","geometry":{"type":"Point","coordinates":[-112.035291,46.592749]},"properties":{"name":"Helena","pop":38725,"rank":4}},{"type":"Feature","geometry":{"type":"Point","coordinates":[-100.783316,46.808317]},"properties":{"name":"Bismarck","pop":63871,"rank":4}},{"type":"Feature","geometry":{"type":"Point","coordinates":[-116.22749,43.60859]},"properties":{"name":"Boise","pop":338071,"rank":2}},{"type":"Feature","geometry":{"type":"Point","coordinates":[-121.888179,37.330943]},"properties":{"name":"San Jose","pop":1668000,"rank":1}},{"type":"Feature","geometry":{"type":"Point","coordinates":[-121.471984,38.576967]},